[
  {
    "id": "loc-airport-auh",
    "locationType": "airport",
    "code": "AUH",
    "nameEn": "Zayed International Airport",
    "aliases": [
      "AUH",
      "OMAA",
      "Zayed International Airport",
      "Abu Dhabi",
      "AE-AZ",
      "Abu Dhabi International Airport"
    ],
    "latitude": 24.440966,
    "longitude": 54.649237,
    "countryCode": "AE"
  },
  {
    "id": "loc-airport-azi",
    "locationType": "airport",
    "code": "AZI",
    "nameEn": "Al Bateen Executive Airport",
    "aliases": [
      "AZI",
      "OMAD",
      "Al Bateen Executive Airport",
      "Abu Dhabi",
      "AE-AZ",
      "Former Abu Dhabi International Airport"
    ],
    "latitude": 24.427062,
    "longitude": 54.459866,
    "countryCode": "AE"
  },
  {
    "id": "loc-airport-aan",
    "locationType": "airport",
    "code": "AAN",
    "nameEn": "Al Ain International Airport",
    "aliases": [
      "AAN",
      "OMAL",
      "Al Ain International Airport",
      "Al Ain",
      "AE-AZ"
    ],
    "latitude": 24.2617,
    "longitude": 55.6092,
    "countryCode": "AE"
  },
  {
    "id": "loc-airport-dhf",
    "locationType": "airport",
    "code": "DHF",
    "nameEn": "Al Dhafra Air Base",
    "aliases": [
      "DHF",
      "OMAM",
      "Al Dhafra Air Base",
      "AE-AZ"
    ],
    "latitude": 24.248199462900004,
    "longitude": 54.547698974599996,
    "countryCode": "AE"
  },
  {
    "id": "loc-airport-xsb",
    "locationType": "airport",
    "code": "XSB",
    "nameEn": "Sir Bani Yas Airport",
    "aliases": [
      "XSB",
      "OMBY",
      "Sir Bani Yas Airport",
      "Sir Bani Yas",
      "AE-AZ",
      "Yas Island"
    ],
    "latitude": 24.283611,
    "longitude": 52.580278,
    "countryCode": "AE"
  },
  {
    "id": "loc-airport-dxb",
    "locationType": "airport",
    "code": "DXB",
    "nameEn": "Dubai International Airport",
    "aliases": [
      "DXB",
      "OMDB",
      "Dubai International Airport",
      "Dubai",
      "AE-DU",
      "مطار دبي الدولي‎"
    ],
    "latitude": 25.24979,
    "longitude": 55.370992,
    "countryCode": "AE"
  },
  {
    "id": "loc-airport-zdy",
    "locationType": "airport",
    "code": "ZDY",
    "nameEn": "Delma Airport",
    "aliases": [
      "ZDY",
      "OMDL",
      "Delma Airport",
      "Delma Island",
      "AE-AZ",
      "Dalma"
    ],
    "latitude": 24.51,
    "longitude": 52.3352,
    "countryCode": "AE"
  },
  {
    "id": "loc-airport-nhd",
    "locationType": "airport",
    "code": "NHD",
    "nameEn": "Al Minhad Air Base",
    "aliases": [
      "NHD",
      "OMDM",
      "Al Minhad Air Base",
      "Dubai",
      "AE-DU"
    ],
    "latitude": 25.0268001556,
    "longitude": 55.3661994934,
    "countryCode": "AE"
  },
  {
    "id": "loc-airport-dwc",
    "locationType": "airport",
    "code": "DWC",
    "nameEn": "Al Maktoum International Airport",
    "aliases": [
      "DWC",
      "OMDW",
      "Al Maktoum International Airport",
      "Dubai(Jebel Ali)",
      "AE-DU",
      "Dubai World Central"
    ],
    "latitude": 24.896171,
    "longitude": 55.16235,
    "countryCode": "AE"
  },
  {
    "id": "loc-airport-fjr",
    "locationType": "airport",
    "code": "FJR",
    "nameEn": "Fujairah International Airport",
    "aliases": [
      "FJR",
      "OMFJ",
      "Fujairah International Airport",
      "Fujairah",
      "AE-FU"
    ],
    "latitude": 25.108411,
    "longitude": 56.328061,
    "countryCode": "AE"
  },
  {
    "id": "loc-airport-rkt",
    "locationType": "airport",
    "code": "RKT",
    "nameEn": "Ras Al Khaimah International Airport",
    "aliases": [
      "RKT",
      "OMRK",
      "Ras Al Khaimah International Airport",
      "Ras Al Khaimah",
      "AE-RK"
    ],
    "latitude": 25.613501,
    "longitude": 55.938801,
    "countryCode": "AE"
  },
  {
    "id": "loc-airport-shj",
    "locationType": "airport",
    "code": "SHJ",
    "nameEn": "Sharjah International Airport",
    "aliases": [
      "SHJ",
      "OMSJ",
      "Sharjah International Airport",
      "Sharjah",
      "AE-SH"
    ],
    "latitude": 25.3286,
    "longitude": 55.5172,
    "countryCode": "AE"
  },
  {
    "id": "loc-airport-bin",
    "locationType": "airport",
    "code": "BIN",
    "nameEn": "Bamyan Airport",
    "aliases": [
      "BIN",
      "OABN",
      "Bamyan Airport",
      "Bamyan",
      "AF-BAM",
      "Bamiyan"
    ],
    "latitude": 34.808916,
    "longitude": 67.816629,
    "countryCode": "AF"
  },
  {
    "id": "loc-airport-bst",
    "locationType": "airport",
    "code": "BST",
    "nameEn": "Bost Airport",
    "aliases": [
      "BST",
      "OABT",
      "Bost Airport",
      "Lashkar Gah",
      "AF-HEL"
    ],
    "latitude": 31.5597,
    "longitude": 64.364998,
    "countryCode": "AF"
  },
  {
    "id": "loc-airport-ccn",
    "locationType": "airport",
    "code": "CCN",
    "nameEn": "Chaghcharan Airport",
    "aliases": [
      "CCN",
      "OACC",
      "Chaghcharan Airport",
      "Chaghcharan",
      "AF-GHO",
      "Chakcharan"
    ],
    "latitude": 34.526465,
    "longitude": 65.27102,
    "countryCode": "AF"
  },
  {
    "id": "loc-airport-sbf",
    "locationType": "airport",
    "code": "SBF",
    "nameEn": "Sardeh Band Airport",
    "aliases": [
      "SBF",
      "OADS",
      "Sardeh Band Airport",
      "Sardeh Band",
      "AF-GHA"
    ],
    "latitude": 33.3207015991,
    "longitude": 68.6364974976,
    "countryCode": "AF"
  },
  {
    "id": "loc-airport-dwr",
    "locationType": "airport",
    "code": "DWR",
    "nameEn": "Dwyer Airport",
    "aliases": [
      "DWR",
      "OADY",
      "Dwyer Airport",
      "Reg",
      "AF-HEL"
    ],
    "latitude": 31.091265,
    "longitude": 64.066053,
    "countryCode": "AF"
  },
  {
    "id": "loc-airport-daz",
    "locationType": "airport",
    "code": "DAZ",
    "nameEn": "Darwaz Airport",
    "aliases": [
      "DAZ",
      "OADZ",
      "Darwaz Airport",
      "Darwaz",
      "AF-BDS"
    ],
    "latitude": 38.461798,
    "longitude": 70.881606,
    "countryCode": "AF"
  },
  {
    "id": "loc-airport-fah",
    "locationType": "airport",
    "code": "FAH",
    "nameEn": "Farah Airport",
    "aliases": [
      "FAH",
      "OAFR",
      "Farah Airport",
      "Farah",
      "AF-FRA"
    ],
    "latitude": 32.366667,
    "longitude": 62.165347,
    "countryCode": "AF"
  },
  {
    "id": "loc-airport-fbd",
    "locationType": "airport",
    "code": "FBD",
    "nameEn": "Fayzabad Airport",
    "aliases": [
      "FBD",
      "OAFZ",
      "Fayzabad Airport",
      "Fayzabad",
      "AF-BDS"
    ],
    "latitude": 37.122148,
    "longitude": 70.5201,
    "countryCode": "AF"
  },
  {
    "id": "loc-airport-gzi",
    "locationType": "airport",
    "code": "GZI",
    "nameEn": "Ghazni Airport",
    "aliases": [
      "GZI",
      "OAGN",
      "Ghazni Airport",
      "Ghazni",
      "AF-GHA"
    ],
    "latitude": 33.487853,
    "longitude": 68.525243,
    "countryCode": "AF"
  },
  {
    "id": "loc-airport-grg",
    "locationType": "airport",
    "code": "GRG",
    "nameEn": "Gardez Airport",
    "aliases": [
      "GRG",
      "OAGZ",
      "Gardez Airport",
      "Gardez",
      "AF-PIA"
    ],
    "latitude": 33.627366,
    "longitude": 69.237023,
    "countryCode": "AF"
  },
  {
    "id": "loc-airport-kwh",
    "locationType": "airport",
    "code": "KWH",
    "nameEn": "Khwahan Airport",
    "aliases": [
      "KWH",
      "OAHN",
      "Khwahan Airport",
      "Khwahan",
      "AF-BDS"
    ],
    "latitude": 37.890021,
    "longitude": 70.20383,
    "countryCode": "AF"
  },
  {
    "id": "loc-airport-hea",
    "locationType": "airport",
    "code": "HEA",
    "nameEn": "Herat - Khwaja Abdullah Ansari International Airport",
    "aliases": [
      "HEA",
      "OAHR",
      "Herat - Khwaja Abdullah Ansari International Airport",
      "Guzara",
      "AF-HER"
    ],
    "latitude": 34.209999,
    "longitude": 62.228298,
    "countryCode": "AF"
  },
  {
    "id": "loc-airport-oai",
    "locationType": "airport",
    "code": "OAI",
    "nameEn": "Bagram Airfield",
    "aliases": [
      "OAI",
      "OAIX",
      "Bagram Airfield",
      "Bagram",
      "AF-PAR",
      "Bagram Air Base"
    ],
    "latitude": 34.946098,
    "longitude": 69.264999,
    "countryCode": "AF"
  },
  {
    "id": "loc-airport-jaa",
    "locationType": "airport",
    "code": "JAA",
    "nameEn": "Jalalabad Airport",
    "aliases": [
      "JAA",
      "OAJL",
      "Jalalabad Airport",
      "Jalalabad",
      "AF-NAN"
    ],
    "latitude": 34.399799,
    "longitude": 70.498596,
    "countryCode": "AF"
  },
  {
    "id": "loc-airport-kbl",
    "locationType": "airport",
    "code": "KBL",
    "nameEn": "Kabul International Airport",
    "aliases": [
      "KBL",
      "OAKB",
      "Kabul International Airport",
      "Kabul",
      "AF-KAB",
      "Hamid Karzai International Airport, Khwaja Rawash Airport"
    ],
    "latitude": 34.565899,
    "longitude": 69.212303,
    "countryCode": "AF"
  },
  {
    "id": "loc-airport-kdh",
    "locationType": "airport",
    "code": "KDH",
    "nameEn": "Ahmad Shah Baba International Airport",
    "aliases": [
      "KDH",
      "OAKN",
      "Ahmad Shah Baba International Airport",
      "Kandahar",
      "AF-KAN",
      "Kandahar International Airport, Kandahar Airfield"
    ],
    "latitude": 31.505769,
    "longitude": 65.847963,
    "countryCode": "AF"
  },
  {
    "id": "loc-airport-kht",
    "locationType": "airport",
    "code": "KHT",
    "nameEn": "Khost International Airport",
    "aliases": [
      "KHT",
      "OAKS",
      "Khost International Airport",
      "Khost",
      "AF-KHO",
      "FOB Chapman"
    ],
    "latitude": 33.284605,
    "longitude": 69.80734,
    "countryCode": "AF"
  },
  {
    "id": "loc-airport-mmz",
    "locationType": "airport",
    "code": "MMZ",
    "nameEn": "Maymana Zahiraddin Faryabi Airport",
    "aliases": [
      "MMZ",
      "OAMN",
      "Maymana Zahiraddin Faryabi Airport",
      "Maymana",
      "AF-FYB",
      "Maimana"
    ],
    "latitude": 35.930801,
    "longitude": 64.760902,
    "countryCode": "AF"
  },
  {
    "id": "loc-airport-mzr",
    "locationType": "airport",
    "code": "MZR",
    "nameEn": "Mazar-i-Sharif International Airport",
    "aliases": [
      "MZR",
      "OAMS",
      "Mazar-i-Sharif International Airport",
      "Mazar-i-Sharif",
      "AF-BAL",
      "Mazari Sharif"
    ],
    "latitude": 36.70412,
    "longitude": 67.210459,
    "countryCode": "AF"
  },
  {
    "id": "loc-airport-imz",
    "locationType": "airport",
    "code": "IMZ",
    "nameEn": "Nimroz Airport",
    "aliases": [
      "IMZ",
      "OANZ",
      "Nimroz Airport",
      "Ziarat-e Amiran Saseb",
      "AF-NIM"
    ],
    "latitude": 30.963333,
    "longitude": 62.060833,
    "countryCode": "AF"
  },
  {
    "id": "loc-airport-urn",
    "locationType": "airport",
    "code": "URN",
    "nameEn": "Urgun Airport",
    "aliases": [
      "URN",
      "OAOG",
      "Urgun Airport",
      "Urgun",
      "AF-PKA",
      "Urgoon, Camp Harriman FOB"
    ],
    "latitude": 32.931135,
    "longitude": 69.153167,
    "countryCode": "AF"
  },
  {
    "id": "loc-airport-lqn",
    "locationType": "airport",
    "code": "LQN",
    "nameEn": "Qala-i-Naw Airport",
    "aliases": [
      "LQN",
      "OAQN",
      "Qala-i-Naw Airport",
      "Qala-i-Naw",
      "AF-BDG"
    ],
    "latitude": 34.985472,
    "longitude": 63.117404,
    "countryCode": "AF"
  },
  {
    "id": "loc-airport-urz",
    "locationType": "airport",
    "code": "URZ",
    "nameEn": "Orūzgān Airport",
    "aliases": [
      "URZ",
      "OARG",
      "Orūzgān Airport",
      "Orūzgān",
      "AF-URU",
      "Uruzgan, Urozgan"
    ],
    "latitude": 32.9029998779,
    "longitude": 66.630897522,
    "countryCode": "AF"
  },
  {
    "id": "loc-airport-kur",
    "locationType": "airport",
    "code": "KUR",
    "nameEn": "Razer Airport",
    "aliases": [
      "KUR",
      "OARZ",
      "Razer Airport",
      "Skazar",
      "AF-BDS"
    ],
    "latitude": 36.029893,
    "longitude": 70.714159,
    "countryCode": "AF"
  },
  {
    "id": "loc-airport-oas",
    "locationType": "airport",
    "code": "OAS",
    "nameEn": "Sharana Airstrip",
    "aliases": [
      "OAS",
      "OASA",
      "Sharana Airstrip",
      "Sharana",
      "AF-PKA",
      "Sharana Air Base"
    ],
    "latitude": 33.12575,
    "longitude": 68.838517,
    "countryCode": "AF"
  },
  {
    "id": "loc-airport-oah",
    "locationType": "airport",
    "code": "OAH",
    "nameEn": "Shindand Air Base",
    "aliases": [
      "OAH",
      "OASD",
      "Shindand Air Base",
      "Shindand",
      "AF-FRA"
    ],
    "latitude": 33.3913,
    "longitude": 62.261002,
    "countryCode": "AF"
  },
  {
    "id": "loc-airport-oaa",
    "locationType": "airport",
    "code": "OAA",
    "nameEn": "Shank Air Base",
    "aliases": [
      "OAA",
      "OASH",
      "Shank Air Base",
      "Baraki Barak",
      "AF-LOW",
      "Camp Dahlke, Camp Maiwand"
    ],
    "latitude": 33.922217,
    "longitude": 69.07794,
    "countryCode": "AF"
  },
  {
    "id": "loc-airport-olr",
    "locationType": "airport",
    "code": "OLR",
    "nameEn": "Salerno Airport",
    "aliases": [
      "OLR",
      "OASL",
      "Salerno Airport",
      "Khost",
      "AF-KHO",
      "FOB Salerno"
    ],
    "latitude": 33.3638,
    "longitude": 69.9561,
    "countryCode": "AF"
  },
  {
    "id": "loc-airport-sga",
    "locationType": "airport",
    "code": "SGA",
    "nameEn": "Sheghnan Airport",
    "aliases": [
      "SGA",
      "OASN",
      "Sheghnan Airport",
      "Shiveh",
      "AF-BDS"
    ],
    "latitude": 37.497642,
    "longitude": 71.508484,
    "countryCode": "AF"
  },
  {
    "id": "loc-airport-tii",
    "locationType": "airport",
    "code": "TII",
    "nameEn": "Tarinkot Airport",
    "aliases": [
      "TII",
      "OATN",
      "Tarinkot Airport",
      "Tarinkot",
      "AF-URU",
      "Tarin Kowt"
    ],
    "latitude": 32.604198,
    "longitude": 65.865799,
    "countryCode": "AF"
  },
  {
    "id": "loc-airport-tqn",
    "locationType": "airport",
    "code": "TQN",
    "nameEn": "Taleqan Airport",
    "aliases": [
      "TQN",
      "OATQ",
      "Taleqan Airport",
      "Taleqan",
      "AF-TAK",
      "Taluqan, Taloqan"
    ],
    "latitude": 36.770699,
    "longitude": 69.531998,
    "countryCode": "AF"
  },
  {
    "id": "loc-airport-und",
    "locationType": "airport",
    "code": "UND",
    "nameEn": "Kunduz Airport",
    "aliases": [
      "UND",
      "OAUZ",
      "Kunduz Airport",
      "Kunduz",
      "AF-KDZ",
      "Konduz"
    ],
    "latitude": 36.6651,
    "longitude": 68.910797,
    "countryCode": "AF"
  },
  {
    "id": "loc-airport-oaz",
    "locationType": "airport",
    "code": "OAZ",
    "nameEn": "Camp Shorabak Airfield",
    "aliases": [
      "OAZ",
      "OAZI",
      "Camp Shorabak Airfield",
      "Lashkar Gah",
      "AF-HEL",
      "Camp Bastion, Camp Leatherneck"
    ],
    "latitude": 31.848735,
    "longitude": 64.223175,
    "countryCode": "AF"
  },
  {
    "id": "loc-airport-bbq",
    "locationType": "airport",
    "code": "BBQ",
    "nameEn": "Burton-Nibbs International Airport",
    "aliases": [
      "BBQ",
      "AG-0001",
      "TAPB",
      "Burton-Nibbs International Airport",
      "Codrington",
      "AG-10",
      "Barbuda International Airport, New Barbuda Airport"
    ],
    "latitude": 17.621194,
    "longitude": -61.798347,
    "countryCode": "AG"
  },
  {
    "id": "loc-airport-anu",
    "locationType": "airport",
    "code": "ANU",
    "nameEn": "V. C. Bird International Airport",
    "aliases": [
      "ANU",
      "TAPA",
      "V. C. Bird International Airport",
      "Osbourn",
      "AG-03",
      "St. John's"
    ],
    "latitude": 17.1367,
    "longitude": -61.792702,
    "countryCode": "AG"
  },
  {
    "id": "loc-airport-axa",
    "locationType": "airport",
    "code": "AXA",
    "nameEn": "Clayton J. Lloyd International Airport",
    "aliases": [
      "AXA",
      "TQPF",
      "Clayton J. Lloyd International Airport",
      "The Valley",
      "AI-U-A",
      "Wallblake Airport"
    ],
    "latitude": 18.204773,
    "longitude": -63.05383,
    "countryCode": "AI"
  },
  {
    "id": "loc-airport-kfz",
    "locationType": "airport",
    "code": "KFZ",
    "nameEn": "Kukës International Airport",
    "aliases": [
      "KFZ",
      "LAKU",
      "Kukës International Airport",
      "Kukës",
      "AL-07"
    ],
    "latitude": 42.035802,
    "longitude": 20.415955,
    "countryCode": "AL"
  },
  {
    "id": "loc-airport-tia",
    "locationType": "airport",
    "code": "TIA",
    "nameEn": "Tirana International Airport Mother Teresa",
    "aliases": [
      "TIA",
      "LATI",
      "Tirana International Airport Mother Teresa",
      "Rinas",
      "AL-02",
      "Rinas International Airport, Aeroporti Nënë Tereza"
    ],
    "latitude": 41.4147,
    "longitude": 19.7206,
    "countryCode": "AL"
  },
  {
    "id": "loc-airport-yuk",
    "locationType": "airport",
    "code": "YUK",
    "nameEn": "Syunik Airport",
    "aliases": [
      "YUK",
      "AM-0001",
      "UDCK",
      "Syunik Airport",
      "Kapan",
      "AM-SU",
      "Սյունիքի օդանավակայան"
    ],
    "latitude": 39.202272,
    "longitude": 46.455204,
    "countryCode": "AM"
  },
  {
    "id": "loc-airport-lwn",
    "locationType": "airport",
    "code": "LWN",
    "nameEn": "Shirak International Airport",
    "aliases": [
      "LWN",
      "UDSG",
      "Shirak International Airport",
      "Gyumri",
      "AM-SH",
      "UGEL"
    ],
    "latitude": 40.750401,
    "longitude": 43.859299,
    "countryCode": "AM"
  },
  {
    "id": "loc-airport-evn",
    "locationType": "airport",
    "code": "EVN",
    "nameEn": "Zvartnots International Airport",
    "aliases": [
      "EVN",
      "UDYZ",
      "Zvartnots International Airport",
      "Yerevan",
      "AM-ER",
      "UGEE, Erevan Airport, Erivan Airport, Аэропорт Звартноц, Аэропорт Ереван"
    ],
    "latitude": 40.148941,
    "longitude": 44.397887,
    "countryCode": "AM"
  },
  {
    "id": "loc-airport-ctv",
    "locationType": "airport",
    "code": "CTV",
    "nameEn": "Catoca Airport",
    "aliases": [
      "CTV",
      "AO-0001",
      "FNCO",
      "Catoca Airport",
      "Saurimo",
      "AO-LSU",
      "Saurimo North"
    ],
    "latitude": -9.431359,
    "longitude": 20.311557,
    "countryCode": "AO"
  },
  {
    "id": "loc-airport-anl",
    "locationType": "airport",
    "code": "ANL",
    "nameEn": "Andulo Airport",
    "aliases": [
      "ANL",
      "AO-0005",
      "Andulo Airport",
      "Andulo",
      "AO-BIE"
    ],
    "latitude": -11.4723,
    "longitude": 16.710899,
    "countryCode": "AO"
  },
  {
    "id": "loc-airport-cnz",
    "locationType": "airport",
    "code": "CNZ",
    "nameEn": "Cangamba Airport",
    "aliases": [
      "CNZ",
      "AO-CNZ",
      "Cangamba Airport",
      "Cangamba",
      "AO-MOX"
    ],
    "latitude": -13.7106,
    "longitude": 19.861099,
    "countryCode": "AO"
  },
  {
    "id": "loc-airport-drc",
    "locationType": "airport",
    "code": "DRC",
    "nameEn": "Dirico Airport",
    "aliases": [
      "DRC",
      "AO-DRC",
      "Dirico Airport",
      "Dirico",
      "AO-CCU"
    ],
    "latitude": -17.981924,
    "longitude": 20.768061,
    "countryCode": "AO"
  },
  {
    "id": "loc-airport-ndf",
    "locationType": "airport",
    "code": "NDF",
    "nameEn": "N'dalatando Airport",
    "aliases": [
      "NDF",
      "AO-NDF",
      "N'dalatando Airport",
      "N'dalatando",
      "AO-CNO"
    ],
    "latitude": -9.280378,
    "longitude": 14.982432,
    "countryCode": "AO"
  },
  {
    "id": "loc-airport-azz",
    "locationType": "airport",
    "code": "AZZ",
    "nameEn": "Ambriz Airport",
    "aliases": [
      "AZZ",
      "FNAM",
      "Ambriz Airport",
      "Ambriz",
      "AO-BGO"
    ],
    "latitude": -7.86222,
    "longitude": 13.1161,
    "countryCode": "AO"
  },
  {
    "id": "loc-airport-ssy",
    "locationType": "airport",
    "code": "SSY",
    "nameEn": "Mbanza Congo Airport",
    "aliases": [
      "SSY",
      "FNBC",
      "Mbanza Congo Airport",
      "Mbanza Congo",
      "AO-ZAI"
    ],
    "latitude": -6.269899845123291,
    "longitude": 14.246999740600586,
    "countryCode": "AO"
  },
  {
    "id": "loc-airport-bug",
    "locationType": "airport",
    "code": "BUG",
    "nameEn": "Benguela Airport",
    "aliases": [
      "BUG",
      "FNBG",
      "Benguela Airport",
      "Benguela",
      "AO-BGU",
      "Aeroporto 17 de Setembro, Gen. V. Deslandes Airport"
    ],
    "latitude": -12.609,
    "longitude": 13.4037,
    "countryCode": "AO"
  },
  {
    "id": "loc-airport-nbj",
    "locationType": "airport",
    "code": "NBJ",
    "nameEn": "Dr. Antonio Agostinho Neto International Airport",
    "aliases": [
      "NBJ",
      "FNBJ",
      "Dr. Antonio Agostinho Neto International Airport",
      "Luanda (Ícolo e Bengo)",
      "AO-LUA",
      "Novo Aeroporto Internacional de Luanda"
    ],
    "latitude": -9.050734,
    "longitude": 13.499078,
    "countryCode": "AO"
  },
  {
    "id": "loc-airport-ggc",
    "locationType": "airport",
    "code": "GGC",
    "nameEn": "Lumbala Airport",
    "aliases": [
      "GGC",
      "FNBL",
      "Lumbala Airport",
      "Lumbala N'guimbo",
      "AO-MOX"
    ],
    "latitude": -14.105106,
    "longitude": 21.45083,
    "countryCode": "AO"
  },
  {
    "id": "loc-airport-cab",
    "locationType": "airport",
    "code": "CAB",
    "nameEn": "Cabinda Airport",
    "aliases": [
      "CAB",
      "FNCA",
      "Cabinda Airport",
      "Cabinda",
      "AO-CAB",
      "Maria Mambo Café"
    ],
    "latitude": -5.59839,
    "longitude": 12.188145,
    "countryCode": "AO"
  },
  {
    "id": "loc-airport-cff",
    "locationType": "airport",
    "code": "CFF",
    "nameEn": "Cafunfo Airport",
    "aliases": [
      "CFF",
      "FNCF",
      "Cafunfo Airport",
      "Cafunfo",
      "AO-LNO"
    ],
    "latitude": -8.78361,
    "longitude": 17.9897,
    "countryCode": "AO"
  },
  {
    "id": "loc-airport-pgi",
    "locationType": "airport",
    "code": "PGI",
    "nameEn": "Chitato Airport",
    "aliases": [
      "PGI",
      "FNCH",
      "Chitato Airport",
      "Chitato",
      "AO-LNO"
    ],
    "latitude": -7.35889,
    "longitude": 20.804701,
    "countryCode": "AO"
  },
  {
    "id": "loc-airport-knp",
    "locationType": "airport",
    "code": "KNP",
    "nameEn": "Kapanda Airport",
    "aliases": [
      "KNP",
      "FNCP",
      "Kapanda Airport",
      "Capanda",
      "AO-MAL"
    ],
    "latitude": -9.76937,
    "longitude": 15.455319,
    "countryCode": "AO"
  },
  {
    "id": "loc-airport-cbt",
    "locationType": "airport",
    "code": "CBT",
    "nameEn": "Catumbela Airport",
    "aliases": [
      "CBT",
      "FNCT",
      "Catumbela Airport",
      "Catumbela",
      "AO-BGU"
    ],
    "latitude": -12.4792,
    "longitude": 13.4869,
    "countryCode": "AO"
  },
  {
    "id": "loc-airport-cti",
    "locationType": "airport",
    "code": "CTI",
    "nameEn": "Cuito Cuanavale Airport",
    "aliases": [
      "CTI",
      "FNCV",
      "Cuito Cuanavale Airport",
      "Cuito Cuanavale",
      "AO-CCU"
    ],
    "latitude": -15.1603,
    "longitude": 19.156099,
    "countryCode": "AO"
  },
  {
    "id": "loc-airport-cxm",
    "locationType": "airport",
    "code": "CXM",
    "nameEn": "Camaxilo Airport",
    "aliases": [
      "CXM",
      "FNCX",
      "Camaxilo Airport",
      "Camaxilo",
      "AO-LNO"
    ],
    "latitude": -8.37361,
    "longitude": 18.923599,
    "countryCode": "AO"
  },
  {
    "id": "loc-airport-cav",
    "locationType": "airport",
    "code": "CAV",
    "nameEn": "Cazombo Airport",
    "aliases": [
      "CAV",
      "FNCZ",
      "Cazombo Airport",
      "Cazombo",
      "AO-MOX"
    ],
    "latitude": -11.8931,
    "longitude": 22.916239,
    "countryCode": "AO"
  },
  {
    "id": "loc-airport-due",
    "locationType": "airport",
    "code": "DUE",
    "nameEn": "Dundo Airport",
    "aliases": [
      "DUE",
      "FNDU",
      "Dundo Airport",
      "Chitato",
      "AO-LNO"
    ],
    "latitude": -7.400889873504639,
    "longitude": 20.818500518798828,
    "countryCode": "AO"
  },
  {
    "id": "loc-airport-vpe",
    "locationType": "airport",
    "code": "VPE",
    "nameEn": "Ngjiva Pereira Airport",
    "aliases": [
      "VPE",
      "FNGI",
      "Ngjiva Pereira Airport",
      "Ngiva",
      "AO-CNN",
      "Ngiva Airport, NGV, Ondjiva, 11 de Novembro"
    ],
    "latitude": -17.0435009003,
    "longitude": 15.683799743700002,
    "countryCode": "AO"
  },
  {
    "id": "loc-airport-nov",
    "locationType": "airport",
    "code": "NOV",
    "nameEn": "Albano Machado Airport",
    "aliases": [
      "NOV",
      "FNHU",
      "Albano Machado Airport",
      "Huambo",
      "AO-HUA",
      "Nova Lisboa Airport"
    ],
    "latitude": -12.8089,
    "longitude": 15.7605,
    "countryCode": "AO"
  },
  {
    "id": "loc-airport-jmb",
    "locationType": "airport",
    "code": "JMB",
    "nameEn": "Jamba Airport",
    "aliases": [
      "JMB",
      "FNJM",
      "Jamba Airport",
      "Jamba",
      "AO-HUI"
    ],
    "latitude": -14.698193,
    "longitude": 16.070148,
    "countryCode": "AO"
  },
  {
    "id": "loc-airport-svp",
    "locationType": "airport",
    "code": "SVP",
    "nameEn": "Kuito Airport",
    "aliases": [
      "SVP",
      "FNKU",
      "Kuito Airport",
      "Kuito",
      "AO-BIE"
    ],
    "latitude": -12.404600143433,
    "longitude": 16.947399139404,
    "countryCode": "AO"
  },
  {
    "id": "loc-airport-llt",
    "locationType": "airport",
    "code": "LLT",
    "nameEn": "Lobito Airport",
    "aliases": [
      "LLT",
      "FNLB",
      "Lobito Airport",
      "Lobito",
      "AO-BGU"
    ],
    "latitude": -12.3712,
    "longitude": 13.5366,
    "countryCode": "AO"
  },
  {
    "id": "loc-airport-lbz",
    "locationType": "airport",
    "code": "LBZ",
    "nameEn": "Lucapa Airport",
    "aliases": [
      "LBZ",
      "FNLK",
      "Lucapa Airport",
      "Lucapa",
      "AO-LNO",
      "Lukapa"
    ],
    "latitude": -8.442339,
    "longitude": 20.732701,
    "countryCode": "AO"
  },
  {
    "id": "loc-airport-lad",
    "locationType": "airport",
    "code": "LAD",
    "nameEn": "Quatro de Fevereiro International Airport",
    "aliases": [
      "LAD",
      "FNLU",
      "Quatro de Fevereiro International Airport",
      "Luanda",
      "AO-LUA",
      "4 de Fevereiro"
    ],
    "latitude": -8.85837,
    "longitude": 13.2312,
    "countryCode": "AO"
  },
  {
    "id": "loc-airport-lzm",
    "locationType": "airport",
    "code": "LZM",
    "nameEn": "Luzamba Airport",
    "aliases": [
      "LZM",
      "FNLZ",
      "Luzamba Airport",
      "Luzamba",
      "AO-LNO",
      "Cuango"
    ],
    "latitude": -9.11596012115,
    "longitude": 18.049299240099998,
    "countryCode": "AO"
  },
  {
    "id": "loc-airport-meg",
    "locationType": "airport",
    "code": "MEG",
    "nameEn": "Malanje Airport",
    "aliases": [
      "MEG",
      "FNMA",
      "Malanje Airport",
      "Malanje",
      "AO-MAL"
    ],
    "latitude": -9.525090217590332,
    "longitude": 16.312400817871094,
    "countryCode": "AO"
  },
  {
    "id": "loc-airport-spp",
    "locationType": "airport",
    "code": "SPP",
    "nameEn": "Menongue Airport",
    "aliases": [
      "SPP",
      "FNME",
      "Menongue Airport",
      "Menongue",
      "AO-CCU"
    ],
    "latitude": -14.657600402832031,
    "longitude": 17.71980094909668,
    "countryCode": "AO"
  },
  {
    "id": "loc-airport-msz",
    "locationType": "airport",
    "code": "MSZ",
    "nameEn": "Welwitschia Mirabilis International Airport",
    "aliases": [
      "MSZ",
      "FNMO",
      "Welwitschia Mirabilis International Airport",
      "Moçâmedes",
      "AO-NAM",
      "Moçâmedes, Namibe, Yuri Gagarin"
    ],
    "latitude": -15.2612,
    "longitude": 12.1468,
    "countryCode": "AO"
  },
  {
    "id": "loc-airport-gxg",
    "locationType": "airport",
    "code": "GXG",
    "nameEn": "Negage Airport",
    "aliases": [
      "GXG",
      "FNNG",
      "Negage Airport",
      "Negage",
      "AO-UIG"
    ],
    "latitude": -7.754509925842285,
    "longitude": 15.287699699401855,
    "countryCode": "AO"
  },
  {
    "id": "loc-airport-pbn",
    "locationType": "airport",
    "code": "PBN",
    "nameEn": "Porto Amboim Airport",
    "aliases": [
      "PBN",
      "FNPA",
      "Porto Amboim Airport",
      "Port Amboim",
      "AO-CUS"
    ],
    "latitude": -10.722,
    "longitude": 13.7655,
    "countryCode": "AO"
  },
  {
    "id": "loc-airport-vhc",
    "locationType": "airport",
    "code": "VHC",
    "nameEn": "Saurimo Airport",
    "aliases": [
      "VHC",
      "FNSA",
      "Saurimo Airport",
      "Saurimo",
      "AO-LSU"
    ],
    "latitude": -9.68907,
    "longitude": 20.4319,
    "countryCode": "AO"
  },
  {
    "id": "loc-airport-sza",
    "locationType": "airport",
    "code": "SZA",
    "nameEn": "Soyo Airport",
    "aliases": [
      "SZA",
      "FNSO",
      "Soyo Airport",
      "Soyo",
      "AO-ZAI"
    ],
    "latitude": -6.141089916229248,
    "longitude": 12.371800422668457,
    "countryCode": "AO"
  },
  {
    "id": "loc-airport-ndd",
    "locationType": "airport",
    "code": "NDD",
    "nameEn": "Sumbe Airport",
    "aliases": [
      "NDD",
      "FNSU",
      "Sumbe Airport",
      "Sumbe",
      "AO-CUS"
    ],
    "latitude": -11.1679,
    "longitude": 13.8475,
    "countryCode": "AO"
  },
  {
    "id": "loc-airport-ual",
    "locationType": "airport",
    "code": "UAL",
    "nameEn": "Luau Airport",
    "aliases": [
      "UAL",
      "FNUA",
      "Luau Airport",
      "Luau",
      "AO-MOX"
    ],
    "latitude": -10.7158,
    "longitude": 22.2311,
    "countryCode": "AO"
  },
  {
    "id": "loc-airport-sdd",
    "locationType": "airport",
    "code": "SDD",
    "nameEn": "Lubango Mukanka International Airport",
    "aliases": [
      "SDD",
      "FNUB",
      "Lubango Mukanka International Airport",
      "Lubango",
      "AO-HUI"
    ],
    "latitude": -14.924839,
    "longitude": 13.576653,
    "countryCode": "AO"
  },
  {
    "id": "loc-airport-luo",
    "locationType": "airport",
    "code": "LUO",
    "nameEn": "Luena Airport",
    "aliases": [
      "LUO",
      "FNUE",
      "Luena Airport",
      "Luena",
      "AO-MOX"
    ],
    "latitude": -11.7681,
    "longitude": 19.897699,
    "countryCode": "AO"
  },
  {
    "id": "loc-airport-ugo",
    "locationType": "airport",
    "code": "UGO",
    "nameEn": "Uige Airport",
    "aliases": [
      "UGO",
      "FNUG",
      "Uige Airport",
      "Uige",
      "AO-UIG"
    ],
    "latitude": -7.60307,
    "longitude": 15.0278,
    "countryCode": "AO"
  },
  {
    "id": "loc-airport-ceo",
    "locationType": "airport",
    "code": "CEO",
    "nameEn": "Waco Kungo Airport",
    "aliases": [
      "CEO",
      "FNWK",
      "Waco Kungo Airport",
      "Waco Kungo",
      "AO-CUS"
    ],
    "latitude": -11.4264,
    "longitude": 15.1014,
    "countryCode": "AO"
  },
  {
    "id": "loc-airport-xgn",
    "locationType": "airport",
    "code": "XGN",
    "nameEn": "Xangongo Airport",
    "aliases": [
      "XGN",
      "FNXA",
      "Xangongo Airport",
      "Xangongo",
      "AO-CNN"
    ],
    "latitude": -16.755399703979492,
    "longitude": 14.965299606323242,
    "countryCode": "AO"
  },
  {
    "id": "loc-airport-arz",
    "locationType": "airport",
    "code": "ARZ",
    "nameEn": "N'zeto Airport",
    "aliases": [
      "ARZ",
      "FNZE",
      "N'zeto Airport",
      "N'zeto",
      "AO-ZAI"
    ],
    "latitude": -7.259277,
    "longitude": 12.862355,
    "countryCode": "AO"
  },
  {
    "id": "loc-airport-nza",
    "locationType": "airport",
    "code": "NZA",
    "nameEn": "Nzagi Airport",
    "aliases": [
      "NZA",
      "FNZG",
      "Nzagi Airport",
      "Nzagi",
      "AO-LNO"
    ],
    "latitude": -7.716939926149999,
    "longitude": 21.358200073200003,
    "countryCode": "AO"
  },
  {
    "id": "loc-airport-wfr",
    "locationType": "airport",
    "code": "WFR",
    "nameEn": "[Duplicate] Wolf's Fang Runway",
    "aliases": [
      "WFR",
      "AT98",
      "[Duplicate] Wolf's Fang Runway",
      "Queen Maud Island",
      "AQ-U-A",
      "AT98, Wolf's Fang Runway"
    ],
    "latitude": -71.5264,
    "longitude": 8.799459,
    "countryCode": "AQ"
  },
  {
    "id": "loc-airport-ugl",
    "locationType": "airport",
    "code": "UGL",
    "nameEn": "Union Glacier Blue-Ice Runway",
    "aliases": [
      "UGL",
      "SCGC",
      "Union Glacier Blue-Ice Runway",
      "Union Glacier",
      "AQ-U-A"
    ],
    "latitude": -79.777778,
    "longitude": -83.320833,
    "countryCode": "AQ"
  },
  {
    "id": "loc-airport-tnm",
    "locationType": "airport",
    "code": "TNM",
    "nameEn": "Teniente Rodolfo Marsh Martin Airport",
    "aliases": [
      "TNM",
      "SCRM",
      "Teniente Rodolfo Marsh Martin Airport",
      "Villa Las Estrellas",
      "AQ-U-A"
    ],
    "latitude": -62.191026,
    "longitude": -58.98669,
    "countryCode": "AQ"
  },
  {
    "id": "loc-airport-qrf",
    "locationType": "airport",
    "code": "QRF",
    "nameEn": "Bragado Airport",
    "aliases": [
      "QRF",
      "AR-0005",
      "SA2X",
      "BRA",
      "Bragado Airport",
      "Bragado",
      "AR-B"
    ],
    "latitude": -35.145811,
    "longitude": -60.480294,
    "countryCode": "AR"
  },
  {
    "id": "loc-airport-cvi",
    "locationType": "airport",
    "code": "CVI",
    "nameEn": "Caleta Olivia Airport",
    "aliases": [
      "CVI",
      "AR-0007",
      "CAO",
      "Caleta Olivia Airport",
      "Caleta Olivia",
      "AR-Z"
    ],
    "latitude": -46.37428,
    "longitude": -67.59409,
    "countryCode": "AR"
  },
  {
    "id": "loc-airport-cnt",
    "locationType": "airport",
    "code": "CNT",
    "nameEn": "Charata Airport",
    "aliases": [
      "CNT",
      "AR-0009",
      "CHA",
      "Charata Airport",
      "Charata",
      "AR-H"
    ],
    "latitude": -27.2164,
    "longitude": -61.2103,
    "countryCode": "AR"
  },
  {
    "id": "loc-airport-vgs",
    "locationType": "airport",
    "code": "VGS",
    "nameEn": "General Villegas Airport",
    "aliases": [
      "VGS",
      "AR-0010",
      "GAS",
      "General Villegas Airport",
      "General Villegas",
      "AR-B"
    ],
    "latitude": -34.995728,
    "longitude": -62.999725,
    "countryCode": "AR"
  },
  {
    "id": "loc-airport-lmd",
    "locationType": "airport",
    "code": "LMD",
    "nameEn": "Los Menucos Airport",
    "aliases": [
      "LMD",
      "AR-0011",
      "MCO",
      "Los Menucos Airport",
      "Los Menucos",
      "AR-R"
    ],
    "latitude": -40.817699,
    "longitude": -68.074699,
    "countryCode": "AR"
  },
  {
    "id": "loc-airport-vcf",
    "locationType": "airport",
    "code": "VCF",
    "nameEn": "Valcheta Airport",
    "aliases": [
      "VCF",
      "AR-0017",
      "VAL",
      "Valcheta Airport",
      "Valcheta",
      "AR-R"
    ],
    "latitude": -40.700001,
    "longitude": -66.150002,
    "countryCode": "AR"
  },
  {
    "id": "loc-airport-cpg",
    "locationType": "airport",
    "code": "CPG",
    "nameEn": "Carmen de Patagones Airport",
    "aliases": [
      "CPG",
      "AR-0390",
      "SA3R",
      "PAT",
      "Carmen de Patagones Airport",
      "Carmen de Patagones",
      "AR-B"
    ],
    "latitude": -40.7781,
    "longitude": -62.9803,
    "countryCode": "AR"
  },
  {
    "id": "loc-airport-lcp",
    "locationType": "airport",
    "code": "LCP",
    "nameEn": "Loncopue Airport",
    "aliases": [
      "LCP",
      "Loncopue Airport",
      "Loncopue",
      "AR-Q",
      "SA18"
    ],
    "latitude": -38.081902,
    "longitude": -70.643898,
    "countryCode": "AR"
  },
  {
    "id": "loc-airport-mjr",
    "locationType": "airport",
    "code": "MJR",
    "nameEn": "Miramar Airport",
    "aliases": [
      "MJR",
      "SA14",
      "SAEM",
      "IRA",
      "Miramar Airport",
      "Miramar",
      "AR-B"
    ],
    "latitude": -38.2271,
    "longitude": -57.8697,
    "countryCode": "AR"
  },
  {
    "id": "loc-airport-coc",
    "locationType": "airport",
    "code": "COC",
    "nameEn": "Comodoro Pierrestegui Airport",
    "aliases": [
      "COC",
      "SAAC",
      "DIA",
      "Comodoro Pierrestegui Airport",
      "Concordia",
      "AR-E"
    ],
    "latitude": -31.2969,
    "longitude": -57.9966,
    "countryCode": "AR"
  },
  {
    "id": "loc-airport-ghu",
    "locationType": "airport",
    "code": "GHU",
    "nameEn": "Gualeguaychu Airport",
    "aliases": [
      "GHU",
      "SAAG",
      "GUA",
      "Gualeguaychu Airport",
      "Gualeguaychu",
      "AR-E"
    ],
    "latitude": -33.005567,
    "longitude": -58.612833,
    "countryCode": "AR"
  },
  {
    "id": "loc-airport-pra",
    "locationType": "airport",
    "code": "PRA",
    "nameEn": "General Urquiza Airport",
    "aliases": [
      "PRA",
      "SAAP",
      "PAR",
      "General Urquiza Airport",
      "Parana",
      "AR-E"
    ],
    "latitude": -31.7948,
    "longitude": -60.4804,
    "countryCode": "AR"
  },
  {
    "id": "loc-airport-ros",
    "locationType": "airport",
    "code": "ROS",
    "nameEn": "Rosario Islas Malvinas International Airport",
    "aliases": [
      "ROS",
      "SAAR",
      "Rosario Islas Malvinas International Airport",
      "Rosario",
      "AR-S",
      "Fisherton Airport"
    ],
    "latitude": -32.9036,
    "longitude": -60.785,
    "countryCode": "AR"
  },
  {
    "id": "loc-airport-sfn",
    "locationType": "airport",
    "code": "SFN",
    "nameEn": "Sauce Viejo Airport",
    "aliases": [
      "SFN",
      "SAAV",
      "SVO",
      "Sauce Viejo Airport",
      "Santa Fe",
      "AR-S"
    ],
    "latitude": -31.7117,
    "longitude": -60.8117,
    "countryCode": "AR"
  },
  {
    "id": "loc-airport-aep",
    "locationType": "airport",
    "code": "AEP",
    "nameEn": "Aeroparque Jorge Newbery",
    "aliases": [
      "AEP",
      "SABE",
      "AER",
      "Aeroparque Jorge Newbery",
      "Buenos Aires",
      "AR-C"
    ],
    "latitude": -34.559419,
    "longitude": -58.415536,
    "countryCode": "AR"
  },
  {
    "id": "loc-airport-lcm",
    "locationType": "airport",
    "code": "LCM",
    "nameEn": "La Cumbre Airport",
    "aliases": [
      "LCM",
      "SACC",
      "CUM",
      "La Cumbre Airport",
      "La Cumbre",
      "AR-X"
    ],
    "latitude": -31.0058,
    "longitude": -64.531898,
    "countryCode": "AR"
  },
  {
    "id": "loc-airport-cor",
    "locationType": "airport",
    "code": "COR",
    "nameEn": "Ingeniero Aeronáutico Ambrosio L.V. Taravella International Airport",
    "aliases": [
      "COR",
      "SACO",
      "CBA",
      "Ingeniero Aeronáutico Ambrosio L.V. Taravella International Airport",
      "Cordoba",
      "AR-X"
    ],
    "latitude": -31.312346,
    "longitude": -64.208329,
    "countryCode": "AR"
  },
  {
    "id": "loc-airport-lpg",
    "locationType": "airport",
    "code": "LPG",
    "nameEn": "La Plata Airport",
    "aliases": [
      "LPG",
      "SADL",
      "PTA",
      "La Plata Airport",
      "La Plata",
      "AR-B"
    ],
    "latitude": -34.9722,
    "longitude": -57.8947,
    "countryCode": "AR"
  },
  {
    "id": "loc-airport-epa",
    "locationType": "airport",
    "code": "EPA",
    "nameEn": "El Palomar Airport",
    "aliases": [
      "EPA",
      "SADP",
      "PAL",
      "El Palomar Airport",
      "El Palomar",
      "AR-B"
    ],
    "latitude": -34.6099,
    "longitude": -58.6126,
    "countryCode": "AR"
  },
  {
    "id": "loc-airport-eze",
    "locationType": "airport",
    "code": "EZE",
    "nameEn": "Ezeiza International Airport - Ministro Pistarini",
    "aliases": [
      "EZE",
      "SAEZ",
      "Ezeiza International Airport - Ministro Pistarini",
      "Buenos Aires (Ezeiza)",
      "AR-B",
      "BUE, Ezeiza International Airport"
    ],
    "latitude": -34.8222,
    "longitude": -58.5358,
    "countryCode": "AR"
  },
  {
    "id": "loc-airport-raf",
    "locationType": "airport",
    "code": "RAF",
    "nameEn": "Rafaela Airport",
    "aliases": [
      "RAF",
      "SAFR",
      "RLA",
      "Rafaela Airport",
      "Rafaela",
      "AR-S"
    ],
    "latitude": -31.2825,
    "longitude": -61.5017,
    "countryCode": "AR"
  },
  {
    "id": "loc-airport-ncj",
    "locationType": "airport",
    "code": "NCJ",
    "nameEn": "Sunchales Aeroclub Airport",
    "aliases": [
      "NCJ",
      "SAFS",
      "SCA",
      "Sunchales Aeroclub Airport",
      "Sunchales",
      "AR-S"
    ],
    "latitude": -30.9575,
    "longitude": -61.5283,
    "countryCode": "AR"
  },
  {
    "id": "loc-airport-hos",
    "locationType": "airport",
    "code": "HOS",
    "nameEn": "Chos Malal Airport",
    "aliases": [
      "HOS",
      "SAHC",
      "CHM",
      "Chos Malal Airport",
      "Chos Malal",
      "AR-Q"
    ],
    "latitude": -37.444698,
    "longitude": -70.222504,
    "countryCode": "AR"
  },
  {
    "id": "loc-airport-cvh",
    "locationType": "airport",
    "code": "CVH",
    "nameEn": "Caviahue Airport",
    "aliases": [
      "CVH",
      "SAHE",
      "Caviahue Airport",
      "Lafontaine",
      "AR-Q"
    ],
    "latitude": -37.851398,
    "longitude": -71.009201,
    "countryCode": "AR"
  },
  {
    "id": "loc-airport-gnr",
    "locationType": "airport",
    "code": "GNR",
    "nameEn": "Dr. Arturo H. Illia Airport",
    "aliases": [
      "GNR",
      "SAHR",
      "Dr. Arturo H. Illia Airport",
      "General Roca",
      "AR-R"
    ],
    "latitude": -39.000702,
    "longitude": -67.620499,
    "countryCode": "AR"
  },
  {
    "id": "loc-airport-rds",
    "locationType": "airport",
    "code": "RDS",
    "nameEn": "Rincon De Los Sauces Airport",
    "aliases": [
      "RDS",
      "SAHS",
      "RIN",
      "Rincon De Los Sauces Airport",
      "Rincon de los Sauces",
      "AR-Q"
    ],
    "latitude": -37.390598,
    "longitude": -68.904198,
    "countryCode": "AR"
  },
  {
    "id": "loc-airport-apz",
    "locationType": "airport",
    "code": "APZ",
    "nameEn": "Zapala Airport",
    "aliases": [
      "APZ",
      "SAHZ",
      "ZAP",
      "Zapala Airport",
      "Zapala",
      "AR-Q"
    ],
    "latitude": -38.975498,
    "longitude": -70.113602,
    "countryCode": "AR"
  },
  {
    "id": "loc-airport-mdz",
    "locationType": "airport",
    "code": "MDZ",
    "nameEn": "Governor Francisco Gabrielli International Airport",
    "aliases": [
      "MDZ",
      "SAME",
      "DOZ",
      "Governor Francisco Gabrielli International Airport",
      "Mendoza",
      "AR-M",
      "El Plumerillo International Airport"
    ],
    "latitude": -32.831699,
    "longitude": -68.7929,
    "countryCode": "AR"
  },
  {
    "id": "loc-airport-lgs",
    "locationType": "airport",
    "code": "LGS",
    "nameEn": "Comodoro D.R. Salomón Airport",
    "aliases": [
      "LGS",
      "SAMM",
      "MLG",
      "Comodoro D.R. Salomón Airport",
      "Malargue",
      "AR-M"
    ],
    "latitude": -35.493599,
    "longitude": -69.574303,
    "countryCode": "AR"
  },
  {
    "id": "loc-airport-afa",
    "locationType": "airport",
    "code": "AFA",
    "nameEn": "Suboficial Ay Santiago Germano Airport",
    "aliases": [
      "AFA",
      "SAMR",
      "SRA",
      "Suboficial Ay Santiago Germano Airport",
      "San Rafael",
      "AR-M"
    ],
    "latitude": -34.588299,
    "longitude": -68.4039,
    "countryCode": "AR"
  },
  {
    "id": "loc-airport-ctc",
    "locationType": "airport",
    "code": "CTC",
    "nameEn": "Coronel Felipe Varela International Airport",
    "aliases": [
      "CTC",
      "SANC",
      "CAT",
      "Coronel Felipe Varela International Airport",
      "Catamarca",
      "AR-K"
    ],
    "latitude": -28.593117,
    "longitude": -65.7512,
    "countryCode": "AR"
  },
  {
    "id": "loc-airport-sde",
    "locationType": "airport",
    "code": "SDE",
    "nameEn": "Vicecomodoro Angel D. La Paz Aragonés Airport",
    "aliases": [
      "SDE",
      "SANE",
      "Vicecomodoro Angel D. La Paz Aragonés Airport",
      "Santiago del Estero",
      "AR-G"
    ],
    "latitude": -27.765556335399996,
    "longitude": -64.3099975586,
    "countryCode": "AR"
  },
  {
    "id": "loc-airport-irj",
    "locationType": "airport",
    "code": "IRJ",
    "nameEn": "Capitan V A Almonacid Airport",
    "aliases": [
      "IRJ",
      "SANL",
      "LAR",
      "Capitan V A Almonacid Airport",
      "La Rioja",
      "AR-F"
    ],
    "latitude": -29.381599,
    "longitude": -66.795799,
    "countryCode": "AR"
  },
  {
    "id": "loc-airport-rhd",
    "locationType": "airport",
    "code": "RHD",
    "nameEn": "Termas de Río Hondo international Airport",
    "aliases": [
      "RHD",
      "SANR",
      "TRH",
      "Termas de Río Hondo international Airport",
      "Termas de Río Hondo",
      "AR-G"
    ],
    "latitude": -27.4966,
    "longitude": -64.93595,
    "countryCode": "AR"
  },
  {
    "id": "loc-airport-tuc",
    "locationType": "airport",
    "code": "TUC",
    "nameEn": "Teniente Benjamín Matienzo International Airport",
    "aliases": [
      "TUC",
      "SANT",
      "Teniente Benjamín Matienzo International Airport",
      "San Miguel de Tucumán",
      "AR-T"
    ],
    "latitude": -26.837397,
    "longitude": -65.104195,
    "countryCode": "AR"
  },
  {
    "id": "loc-airport-uaq",
    "locationType": "airport",
    "code": "UAQ",
    "nameEn": "Domingo Faustino Sarmiento Airport",
    "aliases": [
      "UAQ",
      "SANU",
      "JUA",
      "Domingo Faustino Sarmiento Airport",
      "San Juan",
      "AR-J"
    ],
    "latitude": -31.571501,
    "longitude": -68.418198,
    "countryCode": "AR"
  },
  {
    "id": "loc-airport-crr",
    "locationType": "airport",
    "code": "CRR",
    "nameEn": "Ceres Airport",
    "aliases": [
      "CRR",
      "SANW",
      "ERE",
      "Ceres Airport",
      "Ceres",
      "AR-S"
    ],
    "latitude": -29.872292,
    "longitude": -61.927925,
    "countryCode": "AR"
  },
  {
    "id": "loc-airport-rcu",
    "locationType": "airport",
    "code": "RCU",
    "nameEn": "Area De Material Airport",
    "aliases": [
      "RCU",
      "SAOC",
      "TRC",
      "Area De Material Airport",
      "Rio Cuarto",
      "AR-X"
    ],
    "latitude": -33.085098,
    "longitude": -64.261299,
    "countryCode": "AR"
  },
  {
    "id": "loc-airport-vdr",
    "locationType": "airport",
    "code": "VDR",
    "nameEn": "Villa Dolores Airport",
    "aliases": [
      "VDR",
      "SAOD",
      "LDR",
      "Villa Dolores Airport",
      "Villa Dolores",
      "AR-X"
    ],
    "latitude": -31.9452,
    "longitude": -65.146301,
    "countryCode": "AR"
  },
  {
    "id": "loc-airport-vme",
    "locationType": "airport",
    "code": "VME",
    "nameEn": "Villa Reynolds Airport",
    "aliases": [
      "VME",
      "SAOR",
      "RYD",
      "Villa Reynolds Airport",
      "Villa Mercedes",
      "AR-D",
      "Pringles"
    ],
    "latitude": -33.7299003601,
    "longitude": -65.3873977661,
    "countryCode": "AR"
  },
  {
    "id": "loc-airport-rlo",
    "locationType": "airport",
    "code": "RLO",
    "nameEn": "Valle Del Conlara International Airport",
    "aliases": [
      "RLO",
      "SAOS",
      "SRC",
      "Valle Del Conlara International Airport",
      "Merlo",
      "AR-D"
    ],
    "latitude": -32.384701,
    "longitude": -65.186501,
    "countryCode": "AR"
  },
  {
    "id": "loc-airport-luq",
    "locationType": "airport",
    "code": "LUQ",
    "nameEn": "Brigadier Mayor D Cesar Raul Ojeda Airport",
    "aliases": [
      "LUQ",
      "SAOU",
      "UIS",
      "Brigadier Mayor D Cesar Raul Ojeda Airport",
      "San Luis",
      "AR-D"
    ],
    "latitude": -33.273201,
    "longitude": -66.3564,
    "countryCode": "AR"
  },
  {
    "id": "loc-airport-cnq",
    "locationType": "airport",
    "code": "CNQ",
    "nameEn": "Corrientes Airport",
    "aliases": [
      "CNQ",
      "SARC",
      "CRR",
      "Corrientes Airport",
      "Corrientes",
      "AR-W"
    ],
    "latitude": -27.4455,
    "longitude": -58.7619,
    "countryCode": "AR"
  },
  {
    "id": "loc-airport-res",
    "locationType": "airport",
    "code": "RES",
    "nameEn": "Resistencia International Airport",
    "aliases": [
      "RES",
      "SARE",
      "SIS",
      "Resistencia International Airport",
      "Resistencia",
      "AR-H"
    ],
    "latitude": -27.44991,
    "longitude": -59.056125,
    "countryCode": "AR"
  },
  {
    "id": "loc-airport-fma",
    "locationType": "airport",
    "code": "FMA",
    "nameEn": "Formosa National Airport",
    "aliases": [
      "FMA",
      "SARF",
      "FSA",
      "Formosa National Airport",
      "Formosa",
      "AR-P",
      "Aeropuerto Nacional de Formosa"
    ],
    "latitude": -26.2127,
    "longitude": -58.2281,
    "countryCode": "AR"
  },
  {
    "id": "loc-airport-igr",
    "locationType": "airport",
    "code": "IGR",
    "nameEn": "Cataratas Del Iguazú International Airport",
    "aliases": [
      "IGR",
      "SARI",
      "IGU",
      "Cataratas Del Iguazú International Airport",
      "Puerto Iguazu",
      "AR-N",
      "Iguaçu, Mayor Carlos Eduardo Krause Airport"
    ],
    "latitude": -25.737301,
    "longitude": -54.4734,
    "countryCode": "AR"
  },
  {
    "id": "loc-airport-aol",
    "locationType": "airport",
    "code": "AOL",
    "nameEn": "Paso De Los Libres Airport",
    "aliases": [
      "AOL",
      "SARL",
      "LIB",
      "Paso De Los Libres Airport",
      "Paso de los Libres",
      "AR-W"
    ],
    "latitude": -29.6894,
    "longitude": -57.1521,
    "countryCode": "AR"
  },
  {
    "id": "loc-airport-mcs",
    "locationType": "airport",
    "code": "MCS",
    "nameEn": "Monte Caseros Airport",
    "aliases": [
      "MCS",
      "SARM",
      "Monte Caseros Airport",
      "Monte Caseros",
      "AR-W"
    ],
    "latitude": -30.2719,
    "longitude": -57.6402,
    "countryCode": "AR"
  },
  {
    "id": "loc-airport-pss",
    "locationType": "airport",
    "code": "PSS",
    "nameEn": "Libertador Gral D Jose De San Martin Airport",
    "aliases": [
      "PSS",
      "SARP",
      "POS",
      "Libertador Gral D Jose De San Martin Airport",
      "Posadas",
      "AR-N"
    ],
    "latitude": -27.3858,
    "longitude": -55.9707,
    "countryCode": "AR"
  },
  {
    "id": "loc-airport-prq",
    "locationType": "airport",
    "code": "PRQ",
    "nameEn": "Termal Airport",
    "aliases": [
      "PRQ",
      "SARS",
      "PSP",
      "Termal Airport",
      "Presidencia Roque Sáenz Peña",
      "AR-H"
    ],
    "latitude": -26.753611,
    "longitude": -60.492222,
    "countryCode": "AR"
  },
  {
    "id": "loc-airport-sla",
    "locationType": "airport",
    "code": "SLA",
    "nameEn": "Martín Miguel de Güemes International Airport",
    "aliases": [
      "SLA",
      "SASA",
      "SAL",
      "Martín Miguel de Güemes International Airport",
      "Salta",
      "AR-A"
    ],
    "latitude": -24.856001,
    "longitude": -65.486198,
    "countryCode": "AR"
  },
  {
    "id": "loc-airport-juj",
    "locationType": "airport",
    "code": "JUJ",
    "nameEn": "Gobernador Horacio Guzman International Airport",
    "aliases": [
      "JUJ",
      "SASJ",
      "Gobernador Horacio Guzman International Airport",
      "San Salvador de Jujuy",
      "AR-Y"
    ],
    "latitude": -24.392799,
    "longitude": -65.097801,
    "countryCode": "AR"
  },
  {
    "id": "loc-airport-ora",
    "locationType": "airport",
    "code": "ORA",
    "nameEn": "Orán Airport",
    "aliases": [
      "ORA",
      "SASO",
      "Orán Airport",
      "Orán",
      "AR-A"
    ],
    "latitude": -23.1528,
    "longitude": -64.329201,
    "countryCode": "AR"
  },
  {
    "id": "loc-airport-ttg",
    "locationType": "airport",
    "code": "TTG",
    "nameEn": "General Enrique Mosconi Airport",
    "aliases": [
      "TTG",
      "SAST",
      "TAR",
      "General Enrique Mosconi Airport",
      "Tartagal",
      "AR-A"
    ],
    "latitude": -22.616877,
    "longitude": -63.793015,
    "countryCode": "AR"
  },
  {
    "id": "loc-airport-clx",
    "locationType": "airport",
    "code": "CLX",
    "nameEn": "Aeródromo de Clorinda",
    "aliases": [
      "CLX",
      "SATC",
      "CLO",
      "Aeródromo de Clorinda",
      "Clorinda",
      "AR-P"
    ],
    "latitude": -25.3036,
    "longitude": -57.7344,
    "countryCode": "AR"
  },
  {
    "id": "loc-airport-elo",
    "locationType": "airport",
    "code": "ELO",
    "nameEn": "El Dorado Airport",
    "aliases": [
      "ELO",
      "SATD",
      "ELD",
      "El Dorado Airport",
      "El Dorado",
      "AR-N"
    ],
    "latitude": -26.397499,
    "longitude": -54.574699,
    "countryCode": "AR"
  },
  {
    "id": "loc-airport-oya",
    "locationType": "airport",
    "code": "OYA",
    "nameEn": "Goya Airport",
    "aliases": [
      "OYA",
      "SATG",
      "GOY",
      "Goya Airport",
      "Goya",
      "AR-W"
    ],
    "latitude": -29.1058,
    "longitude": -59.2189,
    "countryCode": "AR"
  },
  {
    "id": "loc-airport-lls",
    "locationType": "airport",
    "code": "LLS",
    "nameEn": "Alferez Armando Rodriguez Airport",
    "aliases": [
      "LLS",
      "SATK",
      "ITA",
      "Alferez Armando Rodriguez Airport",
      "Las Lomitas",
      "AR-P"
    ],
    "latitude": -24.721399,
    "longitude": -60.548801,
    "countryCode": "AR"
  },
  {
    "id": "loc-airport-mdx",
    "locationType": "airport",
    "code": "MDX",
    "nameEn": "Mercedes Airport",
    "aliases": [
      "MDX",
      "SATM",
      "RCE",
      "Mercedes Airport",
      "Mercedes",
      "AR-W"
    ],
    "latitude": -29.221399,
    "longitude": -58.087799,
    "countryCode": "AR"
  },
  {
    "id": "loc-airport-rcq",
    "locationType": "airport",
    "code": "RCQ",
    "nameEn": "Reconquista Airport",
    "aliases": [
      "RCQ",
      "SATR",
      "RTA",
      "Reconquista Airport",
      "Reconquista",
      "AR-S"
    ],
    "latitude": -29.210278,
    "longitude": -59.683333,
    "countryCode": "AR"
  },
  {
    "id": "loc-airport-uzu",
    "locationType": "airport",
    "code": "UZU",
    "nameEn": "Curuzu Cuatia Airport",
    "aliases": [
      "UZU",
      "SATU",
      "CCA",
      "Curuzu Cuatia Airport",
      "Curuzu Cuatia",
      "AR-W"
    ],
    "latitude": -29.7706,
    "longitude": -57.9789,
    "countryCode": "AR"
  },
  {
    "id": "loc-airport-ehl",
    "locationType": "airport",
    "code": "EHL",
    "nameEn": "El Bolsón Airfield",
    "aliases": [
      "EHL",
      "SAVB",
      "BOL",
      "El Bolsón Airfield",
      "El Bolsón",
      "AR-R"
    ],
    "latitude": -41.943199,
    "longitude": -71.532303,
    "countryCode": "AR"
  },
  {
    "id": "loc-airport-crd",
    "locationType": "airport",
    "code": "CRD",
    "nameEn": "General Enrique Mosconi International Airport",
    "aliases": [
      "CRD",
      "SAVC",
      "CRV",
      "General Enrique Mosconi International Airport",
      "Comodoro Rivadavia",
      "AR-U"
    ],
    "latitude": -45.786941,
    "longitude": -67.463355,
    "countryCode": "AR"
  },
  {
    "id": "loc-airport-emx",
    "locationType": "airport",
    "code": "EMX",
    "nameEn": "El Maitén Airport",
    "aliases": [
      "EMX",
      "SAVD",
      "EMA",
      "El Maitén Airport",
      "El Maitén",
      "AR-U"
    ],
    "latitude": -42.029202,
    "longitude": -71.172501,
    "countryCode": "AR"
  },
  {
    "id": "loc-airport-eqs",
    "locationType": "airport",
    "code": "EQS",
    "nameEn": "Esquel Brigadier Antonio Parodi International Airport",
    "aliases": [
      "EQS",
      "SAVE",
      "ESQ",
      "Esquel Brigadier Antonio Parodi International Airport",
      "Esquel",
      "AR-U"
    ],
    "latitude": -42.908001,
    "longitude": -71.139503,
    "countryCode": "AR"
  },
  {
    "id": "loc-airport-lhs",
    "locationType": "airport",
    "code": "LHS",
    "nameEn": "Las Heras Airport",
    "aliases": [
      "LHS",
      "SAVH",
      "CLH",
      "Las Heras Airport",
      "Las Heras",
      "AR-Z"
    ],
    "latitude": -46.538517,
    "longitude": -68.965323,
    "countryCode": "AR"
  },
  {
    "id": "loc-airport-igb",
    "locationType": "airport",
    "code": "IGB",
    "nameEn": "Ingeniero Jacobacci - Captain H R Bordón Airport",
    "aliases": [
      "IGB",
      "SAVJ",
      "IJC",
      "Ingeniero Jacobacci - Captain H R Bordón Airport",
      "Ingeniero Jacobacci",
      "AR-R"
    ],
    "latitude": -41.3209,
    "longitude": -69.574898,
    "countryCode": "AR"
  },
  {
    "id": "loc-airport-oln",
    "locationType": "airport",
    "code": "OLN",
    "nameEn": "Lago Musters Airport",
    "aliases": [
      "OLN",
      "SAVM",
      "LGM",
      "Lago Musters Airport",
      "Sarmiento",
      "AR-U"
    ],
    "latitude": -45.5752,
    "longitude": -69.077,
    "countryCode": "AR"
  },
  {
    "id": "loc-airport-oes",
    "locationType": "airport",
    "code": "OES",
    "nameEn": "Antoine de Saint Exupéry Airport",
    "aliases": [
      "OES",
      "SAVN",
      "SAN",
      "Antoine de Saint Exupéry Airport",
      "San Antonio Oeste",
      "AR-R"
    ],
    "latitude": -40.7512,
    "longitude": -65.0343,
    "countryCode": "AR"
  },
  {
    "id": "loc-airport-mqd",
    "locationType": "airport",
    "code": "MQD",
    "nameEn": "Maquinchao Airport",
    "aliases": [
      "MQD",
      "SAVQ",
      "MAQ",
      "Maquinchao Airport",
      "Maquinchao",
      "AR-R"
    ],
    "latitude": -41.2430992126,
    "longitude": -68.7078018188,
    "countryCode": "AR"
  },
  {
    "id": "loc-airport-arr",
    "locationType": "airport",
    "code": "ARR",
    "nameEn": "D. Casimiro Szlapelis Airport",
    "aliases": [
      "ARR",
      "SAVR",
      "ARS",
      "D. Casimiro Szlapelis Airport",
      "Alto Rio Senguerr",
      "AR-U"
    ],
    "latitude": -45.013599,
    "longitude": -70.812202,
    "countryCode": "AR"
  },
  {
    "id": "loc-airport-sgv",
    "locationType": "airport",
    "code": "SGV",
    "nameEn": "Sierra Grande Airport",
    "aliases": [
      "SGV",
      "SAVS",
      "SGR",
      "Sierra Grande Airport",
      "Sierra Grande",
      "AR-R"
    ],
    "latitude": -41.591702,
    "longitude": -65.339401,
    "countryCode": "AR"
  },
  {
    "id": "loc-airport-rel",
    "locationType": "airport",
    "code": "REL",
    "nameEn": "Almirante Marco Andres Zar Airport",
    "aliases": [
      "REL",
      "SAVT",
      "TRE",
      "Almirante Marco Andres Zar Airport",
      "Rawson",
      "AR-U",
      "Trelew Airport"
    ],
    "latitude": -43.2105,
    "longitude": -65.2703,
    "countryCode": "AR"
  },
  {
    "id": "loc-airport-vdm",
    "locationType": "airport",
    "code": "VDM",
    "nameEn": "Gobernador Castello Airport",
    "aliases": [
      "VDM",
      "SAVV",
      "VIE",
      "Gobernador Castello Airport",
      "Viedma",
      "Carmen de Patagones",
      "AR-R"
    ],
    "latitude": -40.8692,
    "longitude": -63.0004,
    "countryCode": "AR"
  },
  {
    "id": "loc-airport-pmy",
    "locationType": "airport",
    "code": "PMY",
    "nameEn": "El Tehuelche Airport",
    "aliases": [
      "PMY",
      "SAVY",
      "DRY",
      "El Tehuelche Airport",
      "Puerto Madryn",
      "AR-U"
    ],
    "latitude": -42.7592,
    "longitude": -65.1027,
    "countryCode": "AR"
  },
  {
    "id": "loc-airport-fte",
    "locationType": "airport",
    "code": "FTE",
    "nameEn": "El Calafate - Commander Armando Tola International Airport",
    "aliases": [
      "FTE",
      "SAWC",
      "ECA",
      "El Calafate - Commander Armando Tola International Airport",
      "El Calafate",
      "AR-Z"
    ],
    "latitude": -50.281997,
    "longitude": -72.053949,
    "countryCode": "AR"
  },
  {
    "id": "loc-airport-pud",
    "locationType": "airport",
    "code": "PUD",
    "nameEn": "Puerto Deseado Airport",
    "aliases": [
      "PUD",
      "SAWD",
      "ADO",
      "Puerto Deseado Airport",
      "Puerto Deseado",
      "AR-Z"
    ],
    "latitude": -47.7353,
    "longitude": -65.9041,
    "countryCode": "AR"
  },
  {
    "id": "loc-airport-rga",
    "locationType": "airport",
    "code": "RGA",
    "nameEn": "Gobernador Ramón Trejo Noel International Airport",
    "aliases": [
      "RGA",
      "SAWE",
      "GRA",
      "Gobernador Ramón Trejo Noel International Airport",
      "Rio Grande",
      "AR-V",
      "Hermes Quijada, Gobernador Ramón Trejo Noel"
    ],
    "latitude": -53.7777,
    "longitude": -67.7494,
    "countryCode": "AR"
  },
  {
    "id": "loc-airport-rgl",
    "locationType": "airport",
    "code": "RGL",
    "nameEn": "Piloto Civil Norberto Fernández International Airport",
    "aliases": [
      "RGL",
      "SAWG",
      "GAL",
      "Piloto Civil Norberto Fernández International Airport",
      "Rio Gallegos",
      "AR-Z",
      "Brigadier General D. A. Parodi"
    ],
    "latitude": -51.608791,
    "longitude": -69.308948,
    "countryCode": "AR"
  },
  {
    "id": "loc-airport-ush",
    "locationType": "airport",
    "code": "USH",
    "nameEn": "Ushuaia - Malvinas Argentinas International Airport",
    "aliases": [
      "USH",
      "SAWH",
      "USU",
      "Ushuaia - Malvinas Argentinas International Airport",
      "Ushuaia",
      "AR-V"
    ],
    "latitude": -54.8433,
    "longitude": -68.2958,
    "countryCode": "AR"
  },
  {
    "id": "loc-airport-ula",
    "locationType": "airport",
    "code": "ULA",
    "nameEn": "Capitan D Daniel Vazquez Airport",
    "aliases": [
      "ULA",
      "SAWJ",
      "SJU",
      "Capitan D Daniel Vazquez Airport",
      "San Julian",
      "AR-Z"
    ],
    "latitude": -49.306816,
    "longitude": -67.802596,
    "countryCode": "AR"
  },
  {
    "id": "loc-airport-roy",
    "locationType": "airport",
    "code": "ROY",
    "nameEn": "Rio Mayo Airport",
    "aliases": [
      "ROY",
      "SAWM",
      "RMY",
      "Rio Mayo Airport",
      "Rio Mayo",
      "AR-U"
    ],
    "latitude": -45.703899,
    "longitude": -70.245598,
    "countryCode": "AR"
  },
  {
    "id": "loc-airport-pmq",
    "locationType": "airport",
    "code": "PMQ",
    "nameEn": "Perito Moreno Jalil Hamer Airport",
    "aliases": [
      "PMQ",
      "SAWP",
      "PTM",
      "Perito Moreno Jalil Hamer Airport",
      "Perito Moreno",
      "AR-Z"
    ],
    "latitude": -46.537899,
    "longitude": -70.978699,
    "countryCode": "AR"
  },
  {
    "id": "loc-airport-ggs",
    "locationType": "airport",
    "code": "GGS",
    "nameEn": "Gobernador Gregores Airport",
    "aliases": [
      "GGS",
      "SAWR",
      "GRE",
      "Gobernador Gregores Airport",
      "Gobernador Gregores",
      "AR-Z"
    ],
    "latitude": -48.7831,
    "longitude": -70.150002,
    "countryCode": "AR"
  },
  {
    "id": "loc-airport-jsm",
    "locationType": "airport",
    "code": "JSM",
    "nameEn": "Jose De San Martin Airport",
    "aliases": [
      "JSM",
      "SAWS",
      "Jose De San Martin Airport",
      "Chubut",
      "AR-U"
    ],
    "latitude": -44.048599243199995,
    "longitude": -70.4589004517,
    "countryCode": "AR"
  },
  {
    "id": "loc-airport-ryo",
    "locationType": "airport",
    "code": "RYO",
    "nameEn": "28 de Noviembre Airport",
    "aliases": [
      "RYO",
      "SAWT",
      "BIO",
      "28 de Noviembre Airport",
      "Rio Turbio",
      "AR-Z",
      "El Turbio"
    ],
    "latitude": -51.605,
    "longitude": -72.2203,
    "countryCode": "AR"
  },
  {
    "id": "loc-airport-rza",
    "locationType": "airport",
    "code": "RZA",
    "nameEn": "Santa Cruz Airport",
    "aliases": [
      "RZA",
      "SAWU",
      "SCZ",
      "Santa Cruz Airport",
      "Puerto Santa Cruz",
      "AR-Z"
    ],
    "latitude": -50.0165,
    "longitude": -68.5792,
    "countryCode": "AR"
  },
  {
    "id": "loc-airport-bhi",
    "locationType": "airport",
    "code": "BHI",
    "nameEn": "Comandante Espora Airport",
    "aliases": [
      "BHI",
      "SAZB",
      "BCA",
      "Comandante Espora Airport",
      "Bahía Blanca",
      "AR-B",
      "Bahía Blanca Airport"
    ],
    "latitude": -38.725,
    "longitude": -62.1693,
    "countryCode": "AR"
  },
  {
    "id": "loc-airport-csz",
    "locationType": "airport",
    "code": "CSZ",
    "nameEn": "Brigadier D.H.E. Ruiz Airport",
    "aliases": [
      "CSZ",
      "SAZC",
      "SUZ",
      "Brigadier D.H.E. Ruiz Airport",
      "Coronel Suarez",
      "AR-B"
    ],
    "latitude": -37.446098,
    "longitude": -61.889301,
    "countryCode": "AR"
  },
  {
    "id": "loc-airport-ovr",
    "locationType": "airport",
    "code": "OVR",
    "nameEn": "Olavarria Airport",
    "aliases": [
      "OVR",
      "SAZF",
      "OLA",
      "Olavarria Airport",
      "Olavarria",
      "AR-B"
    ],
    "latitude": -36.889999,
    "longitude": -60.216599,
    "countryCode": "AR"
  },
  {
    "id": "loc-airport-gpo",
    "locationType": "airport",
    "code": "GPO",
    "nameEn": "General Pico Airport",
    "aliases": [
      "GPO",
      "SAZG",
      "GPI",
      "General Pico Airport",
      "General Pico",
      "AR-L"
    ],
    "latitude": -35.696201,
    "longitude": -63.758301,
    "countryCode": "AR"
  },
  {
    "id": "loc-airport-oyo",
    "locationType": "airport",
    "code": "OYO",
    "nameEn": "Tres Arroyos Airport",
    "aliases": [
      "OYO",
      "SAZH",
      "YOS",
      "Tres Arroyos Airport",
      "Tres Arroyos",
      "AR-B"
    ],
    "latitude": -38.3869,
    "longitude": -60.3297,
    "countryCode": "AR"
  },
  {
    "id": "loc-airport-sst",
    "locationType": "airport",
    "code": "SST",
    "nameEn": "Santa Teresita Airport",
    "aliases": [
      "SST",
      "SAZL",
      "STR",
      "Santa Teresita Airport",
      "Santa Teresita",
      "AR-B"
    ],
    "latitude": -36.5423,
    "longitude": -56.7218,
    "countryCode": "AR"
  },
  {
    "id": "loc-airport-mdq",
    "locationType": "airport",
    "code": "MDQ",
    "nameEn": "Ástor Piazzola International Airport",
    "aliases": [
      "MDQ",
      "SAZM",
      "MDP",
      "Ástor Piazzola International Airport",
      "Mar del Plata",
      "AR-B",
      "Brigadier General Bartolome De La Colina International Airport"
    ],
    "latitude": -37.9342,
    "longitude": -57.5733,
    "countryCode": "AR"
  },
  {
    "id": "loc-airport-nqn",
    "locationType": "airport",
    "code": "NQN",
    "nameEn": "Presidente Perón International Airport",
    "aliases": [
      "NQN",
      "SAZN",
      "NEU",
      "Presidente Perón International Airport",
      "Neuquén",
      "AR-Q"
    ],
    "latitude": -38.949001,
    "longitude": -68.155701,
    "countryCode": "AR"
  },
  {
    "id": "loc-airport-nec",
    "locationType": "airport",
    "code": "NEC",
    "nameEn": "Necochea Airport",
    "aliases": [
      "NEC",
      "SAZO",
      "Necochea Airport",
      "Necochea",
      "AR-B"
    ],
    "latitude": -38.490746,
    "longitude": -58.816337,
    "countryCode": "AR"
  },
  {
    "id": "loc-airport-peh",
    "locationType": "airport",
    "code": "PEH",
    "nameEn": "Comodoro Pedro Zanni Airport",
    "aliases": [
      "PEH",
      "SAZP",
      "Comodoro Pedro Zanni Airport",
      "Pehuajó",
      "AR-B"
    ],
    "latitude": -35.8446,
    "longitude": -61.8576,
    "countryCode": "AR"
  },
  {
    "id": "loc-airport-rsa",
    "locationType": "airport",
    "code": "RSA",
    "nameEn": "Santa Rosa Airport",
    "aliases": [
      "RSA",
      "SAZR",
      "OSA",
      "Santa Rosa Airport",
      "Santa Rosa",
      "AR-L"
    ],
    "latitude": -36.588299,
    "longitude": -64.275703,
    "countryCode": "AR"
  },
  {
    "id": "loc-airport-brc",
    "locationType": "airport",
    "code": "BRC",
    "nameEn": "Teniente Luis Candelaria International Airport",
    "aliases": [
      "BRC",
      "SAZS",
      "BAR",
      "Teniente Luis Candelaria International Airport",
      "San Carlos de Bariloche",
      "AR-R",
      "Teniente Luis Candelaria"
    ],
    "latitude": -41.151199,
    "longitude": -71.157501,
    "countryCode": "AR"
  },
  {
    "id": "loc-airport-tdl",
    "locationType": "airport",
    "code": "TDL",
    "nameEn": "Héroes de Malvinas Airport",
    "aliases": [
      "TDL",
      "SAZT",
      "DIL",
      "Héroes de Malvinas Airport",
      "Tandil",
      "AR-B"
    ],
    "latitude": -37.234634,
    "longitude": -59.228647,
    "countryCode": "AR"
  },
  {
    "id": "loc-airport-vlg",
    "locationType": "airport",
    "code": "VLG",
    "nameEn": "Villa Gesell Airport",
    "aliases": [
      "VLG",
      "SAZV",
      "GES",
      "Villa Gesell Airport",
      "Villa Gesell",
      "AR-B"
    ],
    "latitude": -37.2354,
    "longitude": -57.0292,
    "countryCode": "AR"
  },
  {
    "id": "loc-airport-cut",
    "locationType": "airport",
    "code": "CUT",
    "nameEn": "Cutral-Co Airport",
    "aliases": [
      "CUT",
      "SAZW",
      "Cutral-Co Airport",
      "Cutral-Co",
      "AR-Q"
    ],
    "latitude": -38.939701,
    "longitude": -69.264603,
    "countryCode": "AR"
  },
  {
    "id": "loc-airport-cpc",
    "locationType": "airport",
    "code": "CPC",
    "nameEn": "Aviador C. Campos Airport",
    "aliases": [
      "CPC",
      "SAZY",
      "CHP",
      "Aviador C. Campos Airport",
      "Chapelco",
      "San Martin de los Andes",
      "AR-Q"
    ],
    "latitude": -40.075401,
    "longitude": -71.137299,
    "countryCode": "AR"
  },
  {
    "id": "loc-airport-ofu",
    "locationType": "airport",
    "code": "OFU",
    "nameEn": "Ofu Airport",
    "aliases": [
      "OFU",
      "NSAS",
      "Z08",
      "Ofu Airport",
      "Ofu",
      "AS-MA"
    ],
    "latitude": -14.1844,
    "longitude": -169.669998,
    "countryCode": "AS"
  },
  {
    "id": "loc-airport-fti",
    "locationType": "airport",
    "code": "FTI",
    "nameEn": "Fitiuta Airport",
    "aliases": [
      "FTI",
      "NSFQ",
      "FAQ",
      "Fitiuta Airport",
      "Fitiuta Village",
      "AS-MA"
    ],
    "latitude": -14.216131,
    "longitude": -169.423771,
    "countryCode": "AS"
  },
  {
    "id": "loc-airport-ppg",
    "locationType": "airport",
    "code": "PPG",
    "nameEn": "Pago Pago International Airport",
    "aliases": [
      "PPG",
      "NSTU",
      "Pago Pago International Airport",
      "Pago Pago",
      "AS-WT"
    ],
    "latitude": -14.331,
    "longitude": -170.710007,
    "countryCode": "AS"
  },
  {
    "id": "loc-airport-hoh",
    "locationType": "airport",
    "code": "HOH",
    "nameEn": "Hohenems-Dornbirn Airfield",
    "aliases": [
      "HOH",
      "LOIH",
      "Hohenems-Dornbirn Airfield",
      "Hohenems",
      "AT-8"
    ],
    "latitude": 47.384477,
    "longitude": 9.699776,
    "countryCode": "AT"
  },
  {
    "id": "loc-airport-grz",
    "locationType": "airport",
    "code": "GRZ",
    "nameEn": "Graz Airport",
    "aliases": [
      "GRZ",
      "LOWG",
      "Graz Airport",
      "Feldkirchen bei Graz",
      "AT-6",
      "Thalerhof Airport, Fliegerhorst Nittner, Nittner Air Base, Christophorus 12"
    ],
    "latitude": 46.9911,
    "longitude": 15.4396,
    "countryCode": "AT"
  },
  {
    "id": "loc-airport-inn",
    "locationType": "airport",
    "code": "INN",
    "nameEn": "Innsbruck Airport",
    "aliases": [
      "INN",
      "LOWI",
      "Innsbruck Airport",
      "Innsbruck",
      "AT-7",
      "Kranebitten Airport"
    ],
    "latitude": 47.260201,
    "longitude": 11.344,
    "countryCode": "AT"
  },
  {
    "id": "loc-airport-klu",
    "locationType": "airport",
    "code": "KLU",
    "nameEn": "Klagenfurt Airport",
    "aliases": [
      "KLU",
      "LOWK",
      "Klagenfurt Airport",
      "Klagenfurt am Wörthersee",
      "AT-2",
      "Kärnten Airport, Christophorus 11"
    ],
    "latitude": 46.642502,
    "longitude": 14.3377,
    "countryCode": "AT"
  },
  {
    "id": "loc-airport-lnz",
    "locationType": "airport",
    "code": "LNZ",
    "nameEn": "Linz-Hörsching Airport",
    "aliases": [
      "LNZ",
      "LOWL",
      "Linz-Hörsching Airport",
      "Linz",
      "AT-4",
      "Blue Danube Airport, Vogler Air Base, Fliegerhorst Vogler, Christophorus 10"
    ],
    "latitude": 48.235362,
    "longitude": 14.188128,
    "countryCode": "AT"
  },
  {
    "id": "loc-airport-szg",
    "locationType": "airport",
    "code": "SZG",
    "nameEn": "Salzburg Airport",
    "aliases": [
      "SZG",
      "LOWS",
      "Salzburg Airport",
      "Salzburg",
      "AT-5",
      "Christophorus 6"
    ],
    "latitude": 47.793301,
    "longitude": 13.0043,
    "countryCode": "AT"
  },
  {
    "id": "loc-airport-vie",
    "locationType": "airport",
    "code": "VIE",
    "nameEn": "Vienna International Airport",
    "aliases": [
      "VIE",
      "LOWW",
      "Vienna International Airport",
      "Vienna",
      "AT-9"
    ],
    "latitude": 48.110298,
    "longitude": 16.5697,
    "countryCode": "AT"
  },
  {
    "id": "loc-airport-lyt",
    "locationType": "airport",
    "code": "LYT",
    "nameEn": "Lady Elliot Island Airstrip",
    "aliases": [
      "LYT",
      "AU-0081",
      "YLTT",
      "Lady Elliot Island Airstrip",
      "Lady Elliot Island",
      "AU-QLD"
    ],
    "latitude": -24.1129,
    "longitude": 152.7156,
    "countryCode": "AU"
  },
  {
    "id": "loc-airport-gyz",
    "locationType": "airport",
    "code": "GYZ",
    "nameEn": "Gruyere Airport",
    "aliases": [
      "GYZ",
      "AU-0456",
      "YGRM",
      "Gruyere Airport",
      "Cosmo Newbery",
      "AU-WA"
    ],
    "latitude": -28.034548,
    "longitude": 123.81506,
    "countryCode": "AU"
  },
  {
    "id": "loc-airport-agw",
    "locationType": "airport",
    "code": "AGW",
    "nameEn": "Agnew Airport",
    "aliases": [
      "AGW",
      "AU-AGW",
      "YAGN",
      "Agnew Airport",
      "Agnew",
      "AU-QLD"
    ],
    "latitude": -12.1456,
    "longitude": 142.149369,
    "countryCode": "AU"
  },
  {
    "id": "loc-airport-ayd",
    "locationType": "airport",
    "code": "AYD",
    "nameEn": "Alroy Downs Airport",
    "aliases": [
      "AYD",
      "AU-AYD",
      "YALD",
      "Alroy Downs Airport",
      "Alroy Downs",
      "AU-NT"
    ],
    "latitude": -19.2908,
    "longitude": 136.078995,
    "countryCode": "AU"
  },
  {
    "id": "loc-airport-byx",
    "locationType": "airport",
    "code": "BYX",
    "nameEn": "Baniyala Airport",
    "aliases": [
      "BYX",
      "AU-BYX",
      "YBNI",
      "Baniyala Airport",
      "Baniyala",
      "AU-NT"
    ],
    "latitude": -13.1981,
    "longitude": 136.227005,
    "countryCode": "AU"
  },
  {
    "id": "loc-airport-cob",
    "locationType": "airport",
    "code": "COB",
    "nameEn": "Coolibah Airport",
    "aliases": [
      "COB",
      "AU-COB",
      "Coolibah Airport",
      "Coolibah",
      "AU-NT"
    ],
    "latitude": -15.548299789428711,
    "longitude": 130.96200561523438,
    "countryCode": "AU"
  },
  {
    "id": "loc-airport-crj",
    "locationType": "airport",
    "code": "CRJ",
    "nameEn": "Coorabie Airport",
    "aliases": [
      "CRJ",
      "AU-CRJ",
      "Coorabie Airport",
      "Coorabie",
      "AU-SA"
    ],
    "latitude": -31.894399642944336,
    "longitude": 132.29600524902344,
    "countryCode": "AU"
  },
  {
    "id": "loc-airport-cry",
    "locationType": "airport",
    "code": "CRY",
    "nameEn": "Carlton Hill Airport",
    "aliases": [
      "CRY",
      "AU-CRY",
      "Carlton Hill Airport",
      "Carlton Hill",
      "AU-WA"
    ],
    "latitude": -15.501899719238281,
    "longitude": 128.53399658203125,
    "countryCode": "AU"
  },
  {
    "id": "loc-airport-csd",
    "locationType": "airport",
    "code": "CSD",
    "nameEn": "Cresswell Downs Airport",
    "aliases": [
      "CSD",
      "AU-CSD",
      "Cresswell Downs Airport",
      "Cresswell Downs",
      "AU-NT"
    ],
    "latitude": -17.947999954223633,
    "longitude": 135.91600036621094,
    "countryCode": "AU"
  },
  {
    "id": "loc-airport-dym",
    "locationType": "airport",
    "code": "DYM",
    "nameEn": "Diamantina Lakes Airport",
    "aliases": [
      "DYM",
      "AU-DYM",
      "Diamantina Lakes Airport",
      "Diamantina Lakes",
      "AU-QLD"
    ],
    "latitude": -23.761699676513672,
    "longitude": 141.14500427246094,
    "countryCode": "AU"
  },
  {
    "id": "loc-airport-hlv",
    "locationType": "airport",
    "code": "HLV",
    "nameEn": "Helenvale Airport",
    "aliases": [
      "HLV",
      "AU-HLV",
      "Helenvale Airport",
      "Helenvale",
      "AU-QLD"
    ],
    "latitude": -15.685799598693848,
    "longitude": 145.21499633789062,
    "countryCode": "AU"
  },
  {
    "id": "loc-airport-kbd",
    "locationType": "airport",
    "code": "KBD",
    "nameEn": "Kimberley Downs Airport",
    "aliases": [
      "KBD",
      "AU-KBD",
      "YKBS",
      "Kimberley Downs Airport",
      "Kimberley Downs",
      "AU-WA"
    ],
    "latitude": -17.398577,
    "longitude": 124.355565,
    "countryCode": "AU"
  },
  {
    "id": "loc-airport-kgr",
    "locationType": "airport",
    "code": "KGR",
    "nameEn": "Kulgera Airport",
    "aliases": [
      "KGR",
      "AU-KGR",
      "Kulgera Airport",
      "Ghan",
      "AU-NT"
    ],
    "latitude": -25.8428,
    "longitude": 133.292007,
    "countryCode": "AU"
  },
  {
    "id": "loc-airport-pep",
    "locationType": "airport",
    "code": "PEP",
    "nameEn": "Peppimenarti Airport",
    "aliases": [
      "PEP",
      "AU-PEP",
      "YPEP",
      "Peppimenarti Airport",
      "Peppimenarti",
      "AU-NT"
    ],
    "latitude": -14.1442,
    "longitude": 130.091003,
    "countryCode": "AU"
  },
  {
    "id": "loc-airport-rda",
    "locationType": "airport",
    "code": "RDA",
    "nameEn": "Rockhampton Downs Airport",
    "aliases": [
      "RDA",
      "AU-RDA",
      "Rockhampton Downs Airport",
      "Rockhampton Downs",
      "AU-NT"
    ],
    "latitude": -18.95330047607422,
    "longitude": 135.2010040283203,
    "countryCode": "AU"
  },
  {
    "id": "loc-airport-ssk",
    "locationType": "airport",
    "code": "SSK",
    "nameEn": "Sturt Creek Airport",
    "aliases": [
      "SSK",
      "AU-SSK",
      "Sturt Creek Airport",
      "Sturt Creek",
      "AU-WA"
    ],
    "latitude": -19.166400909423828,
    "longitude": 128.1739959716797,
    "countryCode": "AU"
  },
  {
    "id": "loc-airport-swb",
    "locationType": "airport",
    "code": "SWB",
    "nameEn": "Shaw River Airport",
    "aliases": [
      "SWB",
      "AU-SWB",
      "Shaw River Airport",
      "Shaw River",
      "AU-WA"
    ],
    "latitude": -21.510299682617188,
    "longitude": 119.36199951171875,
    "countryCode": "AU"
  },
  {
    "id": "loc-airport-twp",
    "locationType": "airport",
    "code": "TWP",
    "nameEn": "Torwood Airport",
    "aliases": [
      "TWP",
      "AU-TWP",
      "Torwood Airport",
      "Torwood",
      "AU-QLD"
    ],
    "latitude": -17.363300323486328,
    "longitude": 143.75,
    "countryCode": "AU"
  },
  {
    "id": "loc-airport-cbc",
    "locationType": "airport",
    "code": "CBC",
    "nameEn": "Cherrabun Airport",
    "aliases": [
      "CBC",
      "Cherrabun Airport",
      "AU-WA"
    ],
    "latitude": -18.917777777800005,
    "longitude": 125.537777778,
    "countryCode": "AU"
  },
  {
    "id": "loc-airport-zvg",
    "locationType": "airport",
    "code": "ZVG",
    "nameEn": "Springvale Airport",
    "aliases": [
      "ZVG",
      "AU-ZVG",
      "Springvale Airport",
      "Springvale",
      "AU-WA"
    ],
    "latitude": -17.7869,
    "longitude": 127.669998,
    "countryCode": "AU"
  },
  {
    "id": "loc-airport-fsl",
    "locationType": "airport",
    "code": "FSL",
    "nameEn": "Fossil Downs Airport",
    "aliases": [
      "FSL",
      "Fossil Downs Airport",
      "Fossil Downs Station",
      "AU-WA"
    ],
    "latitude": -18.1321,
    "longitude": 125.7873,
    "countryCode": "AU"
  },
  {
    "id": "loc-airport-kds",
    "locationType": "airport",
    "code": "KDS",
    "nameEn": "Kamaran Downs Airport",
    "aliases": [
      "KDS",
      "Kamaran Downs Airport",
      "Kamaran Downs",
      "AU-QLD"
    ],
    "latitude": -24.3388,
    "longitude": 139.2785,
    "countryCode": "AU"
  },
  {
    "id": "loc-airport-ldw",
    "locationType": "airport",
    "code": "LDW",
    "nameEn": "Lansdowne Airport",
    "aliases": [
      "LDW",
      "Lansdowne Airport",
      "Lansdowne Station",
      "AU-WA"
    ],
    "latitude": -17.6128,
    "longitude": 126.743,
    "countryCode": "AU"
  },
  {
    "id": "loc-airport-lll",
    "locationType": "airport",
    "code": "LLL",
    "nameEn": "Lissadell Airport",
    "aliases": [
      "LLL",
      "Lissadell Airport",
      "Lissadell Station",
      "AU-WA"
    ],
    "latitude": -16.661,
    "longitude": 128.594,
    "countryCode": "AU"
  },
  {
    "id": "loc-airport-miz",
    "locationType": "airport",
    "code": "MIZ",
    "nameEn": "Mainoru Airstrip",
    "aliases": [
      "MIZ",
      "Mainoru Airstrip",
      "Mainoru",
      "AU-NT"
    ],
    "latitude": -14.0533,
    "longitude": 134.0942,
    "countryCode": "AU"
  },
  {
    "id": "loc-airport-mrt",
    "locationType": "airport",
    "code": "MRT",
    "nameEn": "Moroak Airport",
    "aliases": [
      "MRT",
      "Moroak Airport",
      "Moroak",
      "AU-NT"
    ],
    "latitude": -14.818133,
    "longitude": 133.700594,
    "countryCode": "AU"
  },
  {
    "id": "loc-airport-nry",
    "locationType": "airport",
    "code": "NRY",
    "nameEn": "Newry Airport",
    "aliases": [
      "NRY",
      "Newry Airport",
      "Newry",
      "AU-NT"
    ],
    "latitude": -16.0442,
    "longitude": 129.2638,
    "countryCode": "AU"
  },
  {
    "id": "loc-airport-oxo",
    "locationType": "airport",
    "code": "OXO",
    "nameEn": "Orientos Airport",
    "aliases": [
      "OXO",
      "Orientos Airport",
      "Orientos",
      "AU-QLD"
    ],
    "latitude": -28.0598,
    "longitude": 141.5361,
    "countryCode": "AU"
  },
  {
    "id": "loc-airport-rky",
    "locationType": "airport",
    "code": "RKY",
    "nameEn": "Rokeby Airport",
    "aliases": [
      "RKY",
      "Rokeby Airport",
      "Rokeby",
      "AU-QLD"
    ],
    "latitude": -13.6434,
    "longitude": 142.641,
    "countryCode": "AU"
  },
  {
    "id": "loc-airport-rpv",
    "locationType": "airport",
    "code": "RPV",
    "nameEn": "Roper Valley Airport",
    "aliases": [
      "RPV",
      "Roper Valley Airport",
      "Roper Valley",
      "AU-NT"
    ],
    "latitude": -14.9215,
    "longitude": 134.05,
    "countryCode": "AU"
  },
  {
    "id": "loc-airport-rlp",
    "locationType": "airport",
    "code": "RLP",
    "nameEn": "Rosella Plains Airport",
    "aliases": [
      "RLP",
      "Rosella Plains Airport",
      "Rosella Plains",
      "AU-QLD"
    ],
    "latitude": -18.4253,
    "longitude": 144.4587,
    "countryCode": "AU"
  },
  {
    "id": "loc-airport-srm",
    "locationType": "airport",
    "code": "SRM",
    "nameEn": "Sandringham Airport",
    "aliases": [
      "SRM",
      "Sandringham Airport",
      "Sandringham Station",
      "AU-QLD"
    ],
    "latitude": -24.0568,
    "longitude": 139.0821,
    "countryCode": "AU"
  },
  {
    "id": "loc-airport-whl",
    "locationType": "airport",
    "code": "WHL",
    "nameEn": "Welshpool Airport",
    "aliases": [
      "WHL",
      "Welshpool Airport",
      "Welshpool",
      "AU-VIC"
    ],
    "latitude": -38.682382,
    "longitude": 146.445331,
    "countryCode": "AU"
  },
  {
    "id": "loc-airport-alh",
    "locationType": "airport",
    "code": "ALH",
    "nameEn": "Albany Airport",
    "aliases": [
      "ALH",
      "YABA",
      "Albany Airport",
      "Albany",
      "AU-WA",
      "ABA, YPAL, Harry Riggs Albany Regional"
    ],
    "latitude": -34.943333,
    "longitude": 117.808889,
    "countryCode": "AU"
  },
  {
    "id": "loc-airport-abg",
    "locationType": "airport",
    "code": "ABG",
    "nameEn": "Abingdon Downs Airport",
    "aliases": [
      "ABG",
      "YABI",
      "Abingdon Downs Airport",
      "Abingdon Downs",
      "AU-QLD"
    ],
    "latitude": -17.608814,
    "longitude": 143.183531,
    "countryCode": "AU"
  },
  {
    "id": "loc-airport-anz",
    "locationType": "airport",
    "code": "ANZ",
    "nameEn": "Angus Downs Airport",
    "aliases": [
      "ANZ",
      "YADN",
      "Angus Downs Airport",
      "Angus Downs Station",
      "AU-NT"
    ],
    "latitude": -25.0325,
    "longitude": 132.2748,
    "countryCode": "AU"
  },
  {
    "id": "loc-airport-awn",
    "locationType": "airport",
    "code": "AWN",
    "nameEn": "Alton Downs Airport",
    "aliases": [
      "AWN",
      "YADS",
      "Alton Downs Airport",
      "AU-SA"
    ],
    "latitude": -26.488959,
    "longitude": 139.259906,
    "countryCode": "AU"
  },
  {
    "id": "loc-airport-aud",
    "locationType": "airport",
    "code": "AUD",
    "nameEn": "Augustus Downs Airport",
    "aliases": [
      "AUD",
      "YAGD",
      "Augustus Downs Airport",
      "AU-QLD"
    ],
    "latitude": -18.5087,
    "longitude": 139.882084,
    "countryCode": "AU"
  },
  {
    "id": "loc-airport-mrp",
    "locationType": "airport",
    "code": "MRP",
    "nameEn": "Marla Airport",
    "aliases": [
      "MRP",
      "YALA",
      "Marla Airport",
      "Marla",
      "AU-SA"
    ],
    "latitude": -27.334298,
    "longitude": 133.627696,
    "countryCode": "AU"
  },
  {
    "id": "loc-airport-axl",
    "locationType": "airport",
    "code": "AXL",
    "nameEn": "Alexandria Homestead Airport",
    "aliases": [
      "AXL",
      "YALX",
      "Alexandria Homestead Airport",
      "AU-NT"
    ],
    "latitude": -19.060199737548828,
    "longitude": 136.7100067138672,
    "countryCode": "AU"
  },
  {
    "id": "loc-airport-axc",
    "locationType": "airport",
    "code": "AXC",
    "nameEn": "Aramac Airport",
    "aliases": [
      "AXC",
      "YAMC",
      "Aramac Airport",
      "AU-QLD"
    ],
    "latitude": -22.95788,
    "longitude": 145.249504,
    "countryCode": "AU"
  },
  {
    "id": "loc-airport-ado",
    "locationType": "airport",
    "code": "ADO",
    "nameEn": "Andamooka Airport",
    "aliases": [
      "ADO",
      "YAMK",
      "Andamooka Airport",
      "Andamooka",
      "AU-SA"
    ],
    "latitude": -30.438299,
    "longitude": 137.136993,
    "countryCode": "AU"
  },
  {
    "id": "loc-airport-amx",
    "locationType": "airport",
    "code": "AMX",
    "nameEn": "Ammaroo Airport",
    "aliases": [
      "AMX",
      "YAMM",
      "Ammaroo Airport",
      "AU-NT"
    ],
    "latitude": -21.738300323486328,
    "longitude": 135.24200439453125,
    "countryCode": "AU"
  },
  {
    "id": "loc-airport-amt",
    "locationType": "airport",
    "code": "AMT",
    "nameEn": "Amata Airport",
    "aliases": [
      "AMT",
      "YAMT",
      "Amata Airport",
      "AU-SA"
    ],
    "latitude": -26.097363,
    "longitude": 131.202732,
    "countryCode": "AU"
  },
  {
    "id": "loc-airport-wlp",
    "locationType": "airport",
    "code": "WLP",
    "nameEn": "West Angelas Airport",
    "aliases": [
      "WLP",
      "YANG",
      "West Angelas Airport",
      "AU-WA",
      "West Angelas Mine"
    ],
    "latitude": -23.1355555556,
    "longitude": 118.707222222,
    "countryCode": "AU"
  },
  {
    "id": "loc-airport-ayl",
    "locationType": "airport",
    "code": "AYL",
    "nameEn": "Anthony Lagoon Airport",
    "aliases": [
      "AYL",
      "YANL",
      "Anthony Lagoon Airport",
      "AU-NT"
    ],
    "latitude": -18.018079031,
    "longitude": 135.535068512,
    "countryCode": "AU"
  },
  {
    "id": "loc-airport-abh",
    "locationType": "airport",
    "code": "ABH",
    "nameEn": "Alpha Airport",
    "aliases": [
      "ABH",
      "YAPH",
      "Alpha Airport",
      "Alpha",
      "AU-QLD"
    ],
    "latitude": -23.652849,
    "longitude": 146.582668,
    "countryCode": "AU"
  },
  {
    "id": "loc-airport-ary",
    "locationType": "airport",
    "code": "ARY",
    "nameEn": "Ararat Airport",
    "aliases": [
      "ARY",
      "YARA",
      "Ararat Airport",
      "Ararat",
      "AU-VIC"
    ],
    "latitude": -37.309978,
    "longitude": 142.988688,
    "countryCode": "AU"
  },
  {
    "id": "loc-airport-gyl",
    "locationType": "airport",
    "code": "GYL",
    "nameEn": "Argyle Airport",
    "aliases": [
      "GYL",
      "YARG",
      "Argyle Airport",
      "AU-WA"
    ],
    "latitude": -16.636944,
    "longitude": 128.451389,
    "countryCode": "AU"
  },
  {
    "id": "loc-airport-arm",
    "locationType": "airport",
    "code": "ARM",
    "nameEn": "Armidale Airport",
    "aliases": [
      "ARM",
      "YARM",
      "Armidale Airport",
      "Armidale",
      "AU-NSW"
    ],
    "latitude": -30.528099060099997,
    "longitude": 151.617004395,
    "countryCode": "AU"
  },
  {
    "id": "loc-airport-aab",
    "locationType": "airport",
    "code": "AAB",
    "nameEn": "Arrabury Airport",
    "aliases": [
      "AAB",
      "YARY",
      "Arrabury Airport",
      "Tanbar",
      "AU-QLD"
    ],
    "latitude": -26.69639,
    "longitude": 141.048718,
    "countryCode": "AU"
  },
  {
    "id": "loc-airport-auu",
    "locationType": "airport",
    "code": "AUU",
    "nameEn": "Aurukun Airport",
    "aliases": [
      "AUU",
      "YAUR",
      "Aurukun Airport",
      "Aurukun",
      "AU-QLD"
    ],
    "latitude": -13.354019,
    "longitude": 141.720028,
    "countryCode": "AU"
  },
  {
    "id": "loc-airport-awp",
    "locationType": "airport",
    "code": "AWP",
    "nameEn": "Austral Downs Airport",
    "aliases": [
      "AWP",
      "YAUS",
      "Austral Downs Airport",
      "AU-NT"
    ],
    "latitude": -20.5,
    "longitude": 137.75,
    "countryCode": "AU"
  },
  {
    "id": "loc-airport-avg",
    "locationType": "airport",
    "code": "AVG",
    "nameEn": "Auvergne Airport",
    "aliases": [
      "AVG",
      "YAUV",
      "Auvergne Airport",
      "Auvergne Station",
      "AU-NT",
      "Baines"
    ],
    "latitude": -15.690555,
    "longitude": 130.008818,
    "countryCode": "AU"
  },
  {
    "id": "loc-airport-ayq",
    "locationType": "airport",
    "code": "AYQ",
    "nameEn": "Ayers Rock Connellan Airport",
    "aliases": [
      "AYQ",
      "YAYE",
      "Ayers Rock Connellan Airport",
      "Yulara",
      "AU-NT",
      "Ayers Rock, Uluru"
    ],
    "latitude": -25.185913,
    "longitude": 130.97703,
    "countryCode": "AU"
  },
  {
    "id": "loc-airport-ayr",
    "locationType": "airport",
    "code": "AYR",
    "nameEn": "Ayr Airport",
    "aliases": [
      "AYR",
      "YAYR",
      "Ayr Airport",
      "Ayr",
      "AU-QLD"
    ],
    "latitude": -19.595832,
    "longitude": 147.324495,
    "countryCode": "AU"
  },
  {
    "id": "loc-airport-mbn",
    "locationType": "airport",
    "code": "MBN",
    "nameEn": "Mount Barnett Airport",
    "aliases": [
      "MBN",
      "YBAN",
      "Mount Barnett Airport",
      "Wunaamin Miliwundi Ranges",
      "AU-WA",
      "Wananami"
    ],
    "latitude": -16.741453,
    "longitude": 125.905608,
    "countryCode": "AU"
  },
  {
    "id": "loc-airport-bci",
    "locationType": "airport",
    "code": "BCI",
    "nameEn": "Barcaldine Airport",
    "aliases": [
      "BCI",
      "YBAR",
      "Barcaldine Airport",
      "Barcaldine",
      "AU-QLD"
    ],
    "latitude": -23.566268,
    "longitude": 145.302086,
    "countryCode": "AU"
  },
  {
    "id": "loc-airport-asp",
    "locationType": "airport",
    "code": "ASP",
    "nameEn": "Alice Springs Airport",
    "aliases": [
      "ASP",
      "YBAS",
      "Alice Springs Airport",
      "Alice Springs",
      "AU-NT"
    ],
    "latitude": -23.806588,
    "longitude": 133.903427,
    "countryCode": "AU"
  },
  {
    "id": "loc-airport-bdd",
    "locationType": "airport",
    "code": "BDD",
    "nameEn": "Badu Island Airport",
    "aliases": [
      "BDD",
      "YBAU",
      "Badu Island Airport",
      "Badu Island",
      "AU-QLD"
    ],
    "latitude": -10.14955,
    "longitude": 142.173665,
    "countryCode": "AU"
  },
  {
    "id": "loc-airport-bkp",
    "locationType": "airport",
    "code": "BKP",
    "nameEn": "Barkly Downs Airport",
    "aliases": [
      "BKP",
      "YBAW",
      "Barkly Downs Airport",
      "AU-QLD"
    ],
    "latitude": -20.4958333333,
    "longitude": 138.474722222,
    "countryCode": "AU"
  },
  {
    "id": "loc-airport-bne",
    "locationType": "airport",
    "code": "BNE",
    "nameEn": "Brisbane International Airport",
    "aliases": [
      "BNE",
      "YBBN",
      "Brisbane International Airport",
      "Brisbane",
      "AU-QLD"
    ],
    "latitude": -27.384199142456055,
    "longitude": 153.11700439453125,
    "countryCode": "AU"
  },
  {
    "id": "loc-airport-ool",
    "locationType": "airport",
    "code": "OOL",
    "nameEn": "Gold Coast Airport",
    "aliases": [
      "OOL",
      "YBCG",
      "Gold Coast Airport",
      "Gold Coast",
      "AU-QLD"
    ],
    "latitude": -28.165962,
    "longitude": 153.506641,
    "countryCode": "AU"
  },
  {
    "id": "loc-airport-bkq",
    "locationType": "airport",
    "code": "BKQ",
    "nameEn": "Blackall Airport",
    "aliases": [
      "BKQ",
      "YBCK",
      "Blackall Airport",
      "Blackall",
      "AU-QLD"
    ],
    "latitude": -24.431678,
    "longitude": 145.429716,
    "countryCode": "AU"
  },
  {
    "id": "loc-airport-cns",
    "locationType": "airport",
    "code": "CNS",
    "nameEn": "Cairns International Airport",
    "aliases": [
      "CNS",
      "YBCS",
      "Cairns International Airport",
      "Cairns",
      "AU-QLD"
    ],
    "latitude": -16.878921,
    "longitude": 145.74948,
    "countryCode": "AU"
  },
  {
    "id": "loc-airport-ctl",
    "locationType": "airport",
    "code": "CTL",
    "nameEn": "Charleville Airport",
    "aliases": [
      "CTL",
      "YBCV",
      "Charleville Airport",
      "Charleville",
      "AU-QLD"
    ],
    "latitude": -26.4132995605,
    "longitude": 146.261993408,
    "countryCode": "AU"
  },
  {
    "id": "loc-airport-bdw",
    "locationType": "airport",
    "code": "BDW",
    "nameEn": "Bedford Downs Airport",
    "aliases": [
      "BDW",
      "YBDF",
      "Bedford Downs Airport",
      "AU-WA"
    ],
    "latitude": -17.286699295,
    "longitude": 127.462997437,
    "countryCode": "AU"
  },
  {
    "id": "loc-airport-bxg",
    "locationType": "airport",
    "code": "BXG",
    "nameEn": "Bendigo Airport",
    "aliases": [
      "BXG",
      "YBDG",
      "Bendigo Airport",
      "AU-VIC"
    ],
    "latitude": -36.739399,
    "longitude": 144.330002,
    "countryCode": "AU"
  },
  {
    "id": "loc-airport-bvi",
    "locationType": "airport",
    "code": "BVI",
    "nameEn": "Birdsville Airport",
    "aliases": [
      "BVI",
      "YBDV",
      "Birdsville Airport",
      "AU-QLD"
    ],
    "latitude": -25.897499084472656,
    "longitude": 139.34800720214844,
    "countryCode": "AU"
  },
  {
    "id": "loc-airport-bxf",
    "locationType": "airport",
    "code": "BXF",
    "nameEn": "Bellburn Airstrip",
    "aliases": [
      "BXF",
      "YBEB",
      "Bellburn Airstrip",
      "Pumululu National Park",
      "AU-WA",
      "Bungle Bungles"
    ],
    "latitude": -17.545,
    "longitude": 128.305,
    "countryCode": "AU"
  },
  {
    "id": "loc-airport-btx",
    "locationType": "airport",
    "code": "BTX",
    "nameEn": "Betoota Airport",
    "aliases": [
      "BTX",
      "YBEO",
      "Betoota Airport",
      "AU-QLD"
    ],
    "latitude": -25.694791,
    "longitude": 140.738339,
    "countryCode": "AU"
  },
  {
    "id": "loc-airport-bee",
    "locationType": "airport",
    "code": "BEE",
    "nameEn": "Beagle Bay Airport",
    "aliases": [
      "BEE",
      "YBGB",
      "Beagle Bay Airport",
      "Dampier Peninsula",
      "AU-WA"
    ],
    "latitude": -17.0165,
    "longitude": 122.6464,
    "countryCode": "AU"
  },
  {
    "id": "loc-airport-ocm",
    "locationType": "airport",
    "code": "OCM",
    "nameEn": "Boolgeeda",
    "aliases": [
      "OCM",
      "YBGD",
      "Boolgeeda",
      "AU-WA"
    ],
    "latitude": -22.541111,
    "longitude": 117.269444,
    "countryCode": "AU"
  },
  {
    "id": "loc-airport-bqw",
    "locationType": "airport",
    "code": "BQW",
    "nameEn": "Balgo Hill Airport",
    "aliases": [
      "BQW",
      "YBGO",
      "Balgo Hill Airport",
      "Balgo",
      "AU-WA"
    ],
    "latitude": -20.148333,
    "longitude": 127.973889,
    "countryCode": "AU"
  },
  {
    "id": "loc-airport-bhq",
    "locationType": "airport",
    "code": "BHQ",
    "nameEn": "Broken Hill Airport",
    "aliases": [
      "BHQ",
      "YBHI",
      "Broken Hill Airport",
      "Broken Hill",
      "AU-NSW"
    ],
    "latitude": -32.0013999939,
    "longitude": 141.472000122,
    "countryCode": "AU"
  },
  {
    "id": "loc-airport-hti",
    "locationType": "airport",
    "code": "HTI",
    "nameEn": "Hamilton Island Airport",
    "aliases": [
      "HTI",
      "YBHM",
      "Hamilton Island Airport",
      "Hamilton Island",
      "AU-QLD"
    ],
    "latitude": -20.3581008911,
    "longitude": 148.95199585,
    "countryCode": "AU"
  },
  {
    "id": "loc-airport-bcz",
    "locationType": "airport",
    "code": "BCZ",
    "nameEn": "Milyakburra Airport",
    "aliases": [
      "BCZ",
      "YBIC",
      "Milyakburra Airport",
      "Bickerton Island",
      "AU-NT"
    ],
    "latitude": -13.780833333299999,
    "longitude": 136.201666667,
    "countryCode": "AU"
  },
  {
    "id": "loc-airport-beu",
    "locationType": "airport",
    "code": "BEU",
    "nameEn": "Bedourie Airport",
    "aliases": [
      "BEU",
      "YBIE",
      "Bedourie Airport",
      "Bedourie",
      "AU-QLD"
    ],
    "latitude": -24.3461,
    "longitude": 139.460007,
    "countryCode": "AU"
  },
  {
    "id": "loc-airport-biw",
    "locationType": "airport",
    "code": "BIW",
    "nameEn": "Billiluna Airport",
    "aliases": [
      "BIW",
      "YBIL",
      "Billiluna Airport",
      "AU-WA"
    ],
    "latitude": -19.566699981699998,
    "longitude": 127.666999817,
    "countryCode": "AU"
  },
  {
    "id": "loc-airport-bzp",
    "locationType": "airport",
    "code": "BZP",
    "nameEn": "Bizant Airport",
    "aliases": [
      "BZP",
      "YBIZ",
      "Bizant Airport",
      "Lakefield National Park",
      "AU-QLD"
    ],
    "latitude": -14.7402777778,
    "longitude": 144.119444444,
    "countryCode": "AU"
  },
  {
    "id": "loc-airport-brk",
    "locationType": "airport",
    "code": "BRK",
    "nameEn": "Bourke Airport",
    "aliases": [
      "BRK",
      "YBKE",
      "Bourke Airport",
      "AU-NSW"
    ],
    "latitude": -30.039199829101562,
    "longitude": 145.95199584960938,
    "countryCode": "AU"
  },
  {
    "id": "loc-airport-buc",
    "locationType": "airport",
    "code": "BUC",
    "nameEn": "Burketown Airport",
    "aliases": [
      "BUC",
      "YBKT",
      "Burketown Airport",
      "AU-QLD"
    ],
    "latitude": -17.748600006103516,
    "longitude": 139.53399658203125,
    "countryCode": "AU"
  },
  {
    "id": "loc-airport-bln",
    "locationType": "airport",
    "code": "BLN",
    "nameEn": "Benalla Airport",
    "aliases": [
      "BLN",
      "YBLA",
      "Benalla Airport",
      "Benalla",
      "AU-VIC"
    ],
    "latitude": -36.551899,
    "longitude": 146.007004,
    "countryCode": "AU"
  },
  {
    "id": "loc-airport-lcn",
    "locationType": "airport",
    "code": "LCN",
    "nameEn": "Balcanoona Airport",
    "aliases": [
      "LCN",
      "YBLC",
      "Balcanoona Airport",
      "AU-SA"
    ],
    "latitude": -30.535,
    "longitude": 139.337006,
    "countryCode": "AU"
  },