[
  {
    "id": "loc-airport-auh",
    "locationType": "airport",
    "code": "AUH",
    "nameEn": "Zayed International Airport",
    "municipality": "Abu Dhabi",
    "placeNameEn": "Abu Dhabi",
    "placeKey": "ae-abu-dhabi",
    "coordinatePrecision": "exact",
    "aliases": [
      "AUH",
      "OMAA",
      "Zayed International Airport",
      "Abu Dhabi",
      "AE-AZ",
      "Abu Dhabi International Airport"
    ],
    "latitude": 24.440966,
    "longitude": 54.649237,
    "countryCode": "AE"
  },
  {
    "id": "loc-airport-azi",
    "locationType": "airport",
    "code": "AZI",
    "nameEn": "Al Bateen Executive Airport",
    "municipality": "Abu Dhabi",
    "placeNameEn": "Abu Dhabi",
    "placeKey": "ae-abu-dhabi",
    "coordinatePrecision": "exact",
    "aliases": [
      "AZI",
      "OMAD",
      "Al Bateen Executive Airport",
      "Abu Dhabi",
      "AE-AZ",
      "Former Abu Dhabi International Airport"
    ],
    "latitude": 24.427062,
    "longitude": 54.459866,
    "countryCode": "AE"
  },
  {
    "id": "loc-airport-aan",
    "locationType": "airport",
    "code": "AAN",
    "nameEn": "Al Ain International Airport",
    "municipality": "Al Ain",
    "placeNameEn": "Al Ain",
    "placeKey": "ae-al-ain",
    "coordinatePrecision": "exact",
    "aliases": [
      "AAN",
      "OMAL",
      "Al Ain International Airport",
      "Al Ain",
      "AE-AZ"
    ],
    "latitude": 24.2617,
    "longitude": 55.6092,
    "countryCode": "AE"
  },
  {
    "id": "loc-airport-dhf",
    "locationType": "airport",
    "code": "DHF",
    "nameEn": "Al Dhafra Air Base",
    "placeNameEn": "Al Dhafra Air Base",
    "placeKey": "ae-al-dhafra-air-base",
    "coordinatePrecision": "exact",
    "aliases": [
      "DHF",
      "OMAM",
      "Al Dhafra Air Base",
      "AE-AZ"
    ],
    "latitude": 24.248199462900004,
    "longitude": 54.547698974599996,
    "countryCode": "AE"
  },
  {
    "id": "loc-airport-xsb",
    "locationType": "airport",
    "code": "XSB",
    "nameEn": "Sir Bani Yas Airport",
    "municipality": "Sir Bani Yas",
    "placeNameEn": "Sir Bani Yas",
    "placeKey": "ae-sir-bani-yas",
    "coordinatePrecision": "exact",
    "aliases": [
      "XSB",
      "OMBY",
      "Sir Bani Yas Airport",
      "Sir Bani Yas",
      "AE-AZ",
      "Yas Island"
    ],
    "latitude": 24.283611,
    "longitude": 52.580278,
    "countryCode": "AE"
  },
  {
    "id": "loc-airport-dxb",
    "locationType": "airport",
    "code": "DXB",
    "nameEn": "Dubai International Airport",
    "municipality": "Dubai",
    "placeNameEn": "Dubai",
    "placeKey": "ae-dubai",
    "coordinatePrecision": "exact",
    "aliases": [
      "DXB",
      "OMDB",
      "Dubai International Airport",
      "Dubai",
      "AE-DU",
      "مطار دبي الدولي‎"
    ],
    "latitude": 25.24979,
    "longitude": 55.370992,
    "countryCode": "AE"
  },
  {
    "id": "loc-airport-zdy",
    "locationType": "airport",
    "code": "ZDY",
    "nameEn": "Delma Airport",
    "municipality": "Delma Island",
    "placeNameEn": "Delma Island",
    "placeKey": "ae-delma-island",
    "coordinatePrecision": "exact",
    "aliases": [
      "ZDY",
      "OMDL",
      "Delma Airport",
      "Delma Island",
      "AE-AZ",
      "Dalma"
    ],
    "latitude": 24.51,
    "longitude": 52.3352,
    "countryCode": "AE"
  },
  {
    "id": "loc-airport-nhd",
    "locationType": "airport",
    "code": "NHD",
    "nameEn": "Al Minhad Air Base",
    "municipality": "Dubai",
    "placeNameEn": "Dubai",
    "placeKey": "ae-dubai",
    "coordinatePrecision": "exact",
    "aliases": [
      "NHD",
      "OMDM",
      "Al Minhad Air Base",
      "Dubai",
      "AE-DU"
    ],
    "latitude": 25.0268001556,
    "longitude": 55.3661994934,
    "countryCode": "AE"
  },
  {
    "id": "loc-airport-dwc",
    "locationType": "airport",
    "code": "DWC",
    "nameEn": "Al Maktoum International Airport",
    "municipality": "Dubai(Jebel Ali)",
    "placeNameEn": "Dubai(Jebel Ali)",
    "placeKey": "ae-dubai-jebel-ali",
    "coordinatePrecision": "exact",
    "aliases": [
      "DWC",
      "OMDW",
      "Al Maktoum International Airport",
      "Dubai(Jebel Ali)",
      "AE-DU",
      "Dubai World Central"
    ],
    "latitude": 24.896171,
    "longitude": 55.16235,
    "countryCode": "AE"
  },
  {
    "id": "loc-airport-fjr",
    "locationType": "airport",
    "code": "FJR",
    "nameEn": "Fujairah International Airport",
    "municipality": "Fujairah",
    "placeNameEn": "Fujairah",
    "placeKey": "ae-fujairah",
    "coordinatePrecision": "exact",
    "aliases": [
      "FJR",
      "OMFJ",
      "Fujairah International Airport",
      "Fujairah",
      "AE-FU"
    ],
    "latitude": 25.108411,
    "longitude": 56.328061,
    "countryCode": "AE"
  },
  {
    "id": "loc-airport-rkt",
    "locationType": "airport",
    "code": "RKT",
    "nameEn": "Ras Al Khaimah International Airport",
    "municipality": "Ras Al Khaimah",
    "placeNameEn": "Ras Al Khaimah",
    "placeKey": "ae-ras-al-khaimah",
    "coordinatePrecision": "exact",
    "aliases": [
      "RKT",
      "OMRK",
      "Ras Al Khaimah International Airport",
      "Ras Al Khaimah",
      "AE-RK"
    ],
    "latitude": 25.613501,
    "longitude": 55.938801,
    "countryCode": "AE"
  },
  {
    "id": "loc-airport-shj",
    "locationType": "airport",
    "code": "SHJ",
    "nameEn": "Sharjah International Airport",
    "municipality": "Sharjah",
    "placeNameEn": "Sharjah",
    "placeKey": "ae-sharjah",
    "coordinatePrecision": "exact",
    "aliases": [
      "SHJ",
      "OMSJ",
      "Sharjah International Airport",
      "Sharjah",
      "AE-SH"
    ],
    "latitude": 25.3286,
    "longitude": 55.5172,
    "countryCode": "AE"
  },
  {
    "id": "loc-airport-bin",
    "locationType": "airport",
    "code": "BIN",
    "nameEn": "Bamyan Airport",
    "municipality": "Bamyan",
    "placeNameEn": "Bamyan",
    "placeKey": "af-bamyan",
    "coordinatePrecision": "exact",
    "aliases": [
      "BIN",
      "OABN",
      "Bamyan Airport",
      "Bamyan",
      "AF-BAM",
      "Bamiyan"
    ],
    "latitude": 34.808916,
    "longitude": 67.816629,
    "countryCode": "AF"
  },
  {
    "id": "loc-airport-bst",
    "locationType": "airport",
    "code": "BST",
    "nameEn": "Bost Airport",
    "municipality": "Lashkar Gah",
    "placeNameEn": "Lashkar Gah",
    "placeKey": "af-lashkar-gah",
    "coordinatePrecision": "exact",
    "aliases": [
      "BST",
      "OABT",
      "Bost Airport",
      "Lashkar Gah",
      "AF-HEL"
    ],
    "latitude": 31.5597,
    "longitude": 64.364998,
    "countryCode": "AF"
  },
  {
    "id": "loc-airport-ccn",
    "locationType": "airport",
    "code": "CCN",
    "nameEn": "Chaghcharan Airport",
    "municipality": "Chaghcharan",
    "placeNameEn": "Chaghcharan",
    "placeKey": "af-chaghcharan",
    "coordinatePrecision": "exact",
    "aliases": [
      "CCN",
      "OACC",
      "Chaghcharan Airport",
      "Chaghcharan",
      "AF-GHO",
      "Chakcharan"
    ],
    "latitude": 34.526465,
    "longitude": 65.27102,
    "countryCode": "AF"
  },
  {
    "id": "loc-airport-sbf",
    "locationType": "airport",
    "code": "SBF",
    "nameEn": "Sardeh Band Airport",
    "municipality": "Sardeh Band",
    "placeNameEn": "Sardeh Band",
    "placeKey": "af-sardeh-band",
    "coordinatePrecision": "exact",
    "aliases": [
      "SBF",
      "OADS",
      "Sardeh Band Airport",
      "Sardeh Band",
      "AF-GHA"
    ],
    "latitude": 33.3207015991,
    "longitude": 68.6364974976,
    "countryCode": "AF"
  },
  {
    "id": "loc-airport-dwr",
    "locationType": "airport",
    "code": "DWR",
    "nameEn": "Dwyer Airport",
    "municipality": "Reg",
    "placeNameEn": "Reg",
    "placeKey": "af-reg",
    "coordinatePrecision": "exact",
    "aliases": [
      "DWR",
      "OADY",
      "Dwyer Airport",
      "Reg",
      "AF-HEL"
    ],
    "latitude": 31.091265,
    "longitude": 64.066053,
    "countryCode": "AF"
  },
  {
    "id": "loc-airport-daz",
    "locationType": "airport",
    "code": "DAZ",
    "nameEn": "Darwaz Airport",
    "municipality": "Darwaz",
    "placeNameEn": "Darwaz",
    "placeKey": "af-darwaz",
    "coordinatePrecision": "exact",
    "aliases": [
      "DAZ",
      "OADZ",
      "Darwaz Airport",
      "Darwaz",
      "AF-BDS"
    ],
    "latitude": 38.461798,
    "longitude": 70.881606,
    "countryCode": "AF"
  },
  {
    "id": "loc-airport-fah",
    "locationType": "airport",
    "code": "FAH",
    "nameEn": "Farah Airport",
    "municipality": "Farah",
    "placeNameEn": "Farah",
    "placeKey": "af-farah",
    "coordinatePrecision": "exact",
    "aliases": [
      "FAH",
      "OAFR",
      "Farah Airport",
      "Farah",
      "AF-FRA"
    ],
    "latitude": 32.366667,
    "longitude": 62.165347,
    "countryCode": "AF"
  },
  {
    "id": "loc-airport-fbd",
    "locationType": "airport",
    "code": "FBD",
    "nameEn": "Fayzabad Airport",
    "municipality": "Fayzabad",
    "placeNameEn": "Fayzabad",
    "placeKey": "af-fayzabad",
    "coordinatePrecision": "exact",
    "aliases": [
      "FBD",
      "OAFZ",
      "Fayzabad Airport",
      "Fayzabad",
      "AF-BDS"
    ],
    "latitude": 37.122148,
    "longitude": 70.5201,
    "countryCode": "AF"
  },
  {
    "id": "loc-airport-gzi",
    "locationType": "airport",
    "code": "GZI",
    "nameEn": "Ghazni Airport",
    "municipality": "Ghazni",
    "placeNameEn": "Ghazni",
    "placeKey": "af-ghazni",
    "coordinatePrecision": "exact",
    "aliases": [
      "GZI",
      "OAGN",
      "Ghazni Airport",
      "Ghazni",
      "AF-GHA"
    ],
    "latitude": 33.487853,
    "longitude": 68.525243,
    "countryCode": "AF"
  },
  {
    "id": "loc-airport-grg",
    "locationType": "airport",
    "code": "GRG",
    "nameEn": "Gardez Airport",
    "municipality": "Gardez",
    "placeNameEn": "Gardez",
    "placeKey": "af-gardez",
    "coordinatePrecision": "exact",
    "aliases": [
      "GRG",
      "OAGZ",
      "Gardez Airport",
      "Gardez",
      "AF-PIA"
    ],
    "latitude": 33.627366,
    "longitude": 69.237023,
    "countryCode": "AF"
  },
  {
    "id": "loc-airport-kwh",
    "locationType": "airport",
    "code": "KWH",
    "nameEn": "Khwahan Airport",
    "municipality": "Khwahan",
    "placeNameEn": "Khwahan",
    "placeKey": "af-khwahan",
    "coordinatePrecision": "exact",
    "aliases": [
      "KWH",
      "OAHN",
      "Khwahan Airport",
      "Khwahan",
      "AF-BDS"
    ],
    "latitude": 37.890021,
    "longitude": 70.20383,
    "countryCode": "AF"
  },
  {
    "id": "loc-airport-hea",
    "locationType": "airport",
    "code": "HEA",
    "nameEn": "Herat - Khwaja Abdullah Ansari International Airport",
    "municipality": "Guzara",
    "placeNameEn": "Guzara",
    "placeKey": "af-guzara",
    "coordinatePrecision": "exact",
    "aliases": [
      "HEA",
      "OAHR",
      "Herat - Khwaja Abdullah Ansari International Airport",
      "Guzara",
      "AF-HER"
    ],
    "latitude": 34.209999,
    "longitude": 62.228298,
    "countryCode": "AF"
  },
  {
    "id": "loc-airport-oai",
    "locationType": "airport",
    "code": "OAI",
    "nameEn": "Bagram Airfield",
    "municipality": "Bagram",
    "placeNameEn": "Bagram",
    "placeKey": "af-bagram",
    "coordinatePrecision": "exact",
    "aliases": [
      "OAI",
      "OAIX",
      "Bagram Airfield",
      "Bagram",
      "AF-PAR",
      "Bagram Air Base"
    ],
    "latitude": 34.946098,
    "longitude": 69.264999,
    "countryCode": "AF"
  },
  {
    "id": "loc-airport-jaa",
    "locationType": "airport",
    "code": "JAA",
    "nameEn": "Jalalabad Airport",
    "municipality": "Jalalabad",
    "placeNameEn": "Jalalabad",
    "placeKey": "af-jalalabad",
    "coordinatePrecision": "exact",
    "aliases": [
      "JAA",
      "OAJL",
      "Jalalabad Airport",
      "Jalalabad",
      "AF-NAN"
    ],
    "latitude": 34.399799,
    "longitude": 70.498596,
    "countryCode": "AF"
  },
  {
    "id": "loc-airport-kbl",
    "locationType": "airport",
    "code": "KBL",
    "nameEn": "Kabul International Airport",
    "municipality": "Kabul",
    "placeNameEn": "Kabul",
    "placeKey": "af-kabul",
    "coordinatePrecision": "exact",
    "aliases": [
      "KBL",
      "OAKB",
      "Kabul International Airport",
      "Kabul",
      "AF-KAB",
      "Hamid Karzai International Airport, Khwaja Rawash Airport"
    ],
    "latitude": 34.565899,
    "longitude": 69.212303,
    "countryCode": "AF"
  },
  {
    "id": "loc-airport-kdh",
    "locationType": "airport",
    "code": "KDH",
    "nameEn": "Ahmad Shah Baba International Airport",
    "municipality": "Kandahar",
    "placeNameEn": "Kandahar",
    "placeKey": "af-kandahar",
    "coordinatePrecision": "exact",
    "aliases": [
      "KDH",
      "OAKN",
      "Ahmad Shah Baba International Airport",
      "Kandahar",
      "AF-KAN",
      "Kandahar International Airport, Kandahar Airfield"
    ],
    "latitude": 31.505769,
    "longitude": 65.847963,
    "countryCode": "AF"
  },
  {
    "id": "loc-airport-kht",
    "locationType": "airport",
    "code": "KHT",
    "nameEn": "Khost International Airport",
    "municipality": "Khost",
    "placeNameEn": "Khost",
    "placeKey": "af-khost",
    "coordinatePrecision": "exact",
    "aliases": [
      "KHT",
      "OAKS",
      "Khost International Airport",
      "Khost",
      "AF-KHO",
      "FOB Chapman"
    ],
    "latitude": 33.284605,
    "longitude": 69.80734,
    "countryCode": "AF"
  },
  {
    "id": "loc-airport-mmz",
    "locationType": "airport",
    "code": "MMZ",
    "nameEn": "Maymana Zahiraddin Faryabi Airport",
    "municipality": "Maymana",
    "placeNameEn": "Maymana",
    "placeKey": "af-maymana",
    "coordinatePrecision": "exact",
    "aliases": [
      "MMZ",
      "OAMN",
      "Maymana Zahiraddin Faryabi Airport",
      "Maymana",
      "AF-FYB",
      "Maimana"
    ],
    "latitude": 35.930801,
    "longitude": 64.760902,
    "countryCode": "AF"
  },
  {
    "id": "loc-airport-mzr",
    "locationType": "airport",
    "code": "MZR",
    "nameEn": "Mazar-i-Sharif International Airport",
    "municipality": "Mazar-i-Sharif",
    "placeNameEn": "Mazar-i-Sharif",
    "placeKey": "af-mazar-i-sharif",
    "coordinatePrecision": "exact",
    "aliases": [
      "MZR",
      "OAMS",
      "Mazar-i-Sharif International Airport",
      "Mazar-i-Sharif",
      "AF-BAL",
      "Mazari Sharif"
    ],
    "latitude": 36.70412,
    "longitude": 67.210459,
    "countryCode": "AF"
  },
  {
    "id": "loc-airport-imz",
    "locationType": "airport",
    "code": "IMZ",
    "nameEn": "Nimroz Airport",
    "municipality": "Ziarat-e Amiran Saseb",
    "placeNameEn": "Ziarat-e Amiran Saseb",
    "placeKey": "af-ziarat-e-amiran-saseb",
    "coordinatePrecision": "exact",
    "aliases": [
      "IMZ",
      "OANZ",
      "Nimroz Airport",
      "Ziarat-e Amiran Saseb",
      "AF-NIM"
    ],
    "latitude": 30.963333,
    "longitude": 62.060833,
    "countryCode": "AF"
  },
  {
    "id": "loc-airport-urn",
    "locationType": "airport",
    "code": "URN",
    "nameEn": "Urgun Airport",
    "municipality": "Urgun",
    "placeNameEn": "Urgun",
    "placeKey": "af-urgun",
    "coordinatePrecision": "exact",
    "aliases": [
      "URN",
      "OAOG",
      "Urgun Airport",
      "Urgun",
      "AF-PKA",
      "Urgoon, Camp Harriman FOB"
    ],
    "latitude": 32.931135,
    "longitude": 69.153167,
    "countryCode": "AF"
  },
  {
    "id": "loc-airport-lqn",
    "locationType": "airport",
    "code": "LQN",
    "nameEn": "Qala-i-Naw Airport",
    "municipality": "Qala-i-Naw",
    "placeNameEn": "Qala-i-Naw",
    "placeKey": "af-qala-i-naw",
    "coordinatePrecision": "exact",
    "aliases": [
      "LQN",
      "OAQN",
      "Qala-i-Naw Airport",
      "Qala-i-Naw",
      "AF-BDG"
    ],
    "latitude": 34.985472,
    "longitude": 63.117404,
    "countryCode": "AF"
  },
  {
    "id": "loc-airport-urz",
    "locationType": "airport",
    "code": "URZ",
    "nameEn": "Orūzgān Airport",
    "municipality": "Orūzgān",
    "placeNameEn": "Orūzgān",
    "placeKey": "af-oruzgan",
    "coordinatePrecision": "exact",
    "aliases": [
      "URZ",
      "OARG",
      "Orūzgān Airport",
      "Orūzgān",
      "AF-URU",
      "Uruzgan, Urozgan"
    ],
    "latitude": 32.9029998779,
    "longitude": 66.630897522,
    "countryCode": "AF"
  },
  {
    "id": "loc-airport-kur",
    "locationType": "airport",
    "code": "KUR",
    "nameEn": "Razer Airport",
    "municipality": "Skazar",
    "placeNameEn": "Skazar",
    "placeKey": "af-skazar",
    "coordinatePrecision": "exact",
    "aliases": [
      "KUR",
      "OARZ",
      "Razer Airport",
      "Skazar",
      "AF-BDS"
    ],
    "latitude": 36.029893,
    "longitude": 70.714159,
    "countryCode": "AF"
  },
  {
    "id": "loc-airport-oas",
    "locationType": "airport",
    "code": "OAS",
    "nameEn": "Sharana Airstrip",
    "municipality": "Sharana",
    "placeNameEn": "Sharana",
    "placeKey": "af-sharana",
    "coordinatePrecision": "exact",
    "aliases": [
      "OAS",
      "OASA",
      "Sharana Airstrip",
      "Sharana",
      "AF-PKA",
      "Sharana Air Base"
    ],
    "latitude": 33.12575,
    "longitude": 68.838517,
    "countryCode": "AF"
  },
  {
    "id": "loc-airport-oah",
    "locationType": "airport",
    "code": "OAH",
    "nameEn": "Shindand Air Base",
    "municipality": "Shindand",
    "placeNameEn": "Shindand",
    "placeKey": "af-shindand",
    "coordinatePrecision": "exact",
    "aliases": [
      "OAH",
      "OASD",
      "Shindand Air Base",
      "Shindand",
      "AF-FRA"
    ],
    "latitude": 33.3913,
    "longitude": 62.261002,
    "countryCode": "AF"
  },
  {
    "id": "loc-airport-oaa",
    "locationType": "airport",
    "code": "OAA",
    "nameEn": "Shank Air Base",
    "municipality": "Baraki Barak",
    "placeNameEn": "Baraki Barak",
    "placeKey": "af-baraki-barak",
    "coordinatePrecision": "exact",
    "aliases": [
      "OAA",
      "OASH",
      "Shank Air Base",
      "Baraki Barak",
      "AF-LOW",
      "Camp Dahlke, Camp Maiwand"
    ],
    "latitude": 33.922217,
    "longitude": 69.07794,
    "countryCode": "AF"
  },
  {
    "id": "loc-airport-olr",
    "locationType": "airport",
    "code": "OLR",
    "nameEn": "Salerno Airport",
    "municipality": "Khost",
    "placeNameEn": "Khost",
    "placeKey": "af-khost",
    "coordinatePrecision": "exact",
    "aliases": [
      "OLR",
      "OASL",
      "Salerno Airport",
      "Khost",
      "AF-KHO",
      "FOB Salerno"
    ],
    "latitude": 33.3638,
    "longitude": 69.9561,
    "countryCode": "AF"
  },
  {
    "id": "loc-airport-sga",
    "locationType": "airport",
    "code": "SGA",
    "nameEn": "Sheghnan Airport",
    "municipality": "Shiveh",
    "placeNameEn": "Shiveh",
    "placeKey": "af-shiveh",
    "coordinatePrecision": "exact",
    "aliases": [
      "SGA",
      "OASN",
      "Sheghnan Airport",
      "Shiveh",
      "AF-BDS"
    ],
    "latitude": 37.497642,
    "longitude": 71.508484,
    "countryCode": "AF"
  },
  {
    "id": "loc-airport-tii",
    "locationType": "airport",
    "code": "TII",
    "nameEn": "Tarinkot Airport",
    "municipality": "Tarinkot",
    "placeNameEn": "Tarinkot",
    "placeKey": "af-tarinkot",
    "coordinatePrecision": "exact",
    "aliases": [
      "TII",
      "OATN",
      "Tarinkot Airport",
      "Tarinkot",
      "AF-URU",
      "Tarin Kowt"
    ],
    "latitude": 32.604198,
    "longitude": 65.865799,
    "countryCode": "AF"
  },
  {
    "id": "loc-airport-tqn",
    "locationType": "airport",
    "code": "TQN",
    "nameEn": "Taleqan Airport",
    "municipality": "Taleqan",
    "placeNameEn": "Taleqan",
    "placeKey": "af-taleqan",
    "coordinatePrecision": "exact",
    "aliases": [
      "TQN",
      "OATQ",
      "Taleqan Airport",
      "Taleqan",
      "AF-TAK",
      "Taluqan, Taloqan"
    ],
    "latitude": 36.770699,
    "longitude": 69.531998,
    "countryCode": "AF"
  },
  {
    "id": "loc-airport-und",
    "locationType": "airport",
    "code": "UND",
    "nameEn": "Kunduz Airport",
    "municipality": "Kunduz",
    "placeNameEn": "Kunduz",
    "placeKey": "af-kunduz",
    "coordinatePrecision": "exact",
    "aliases": [
      "UND",
      "OAUZ",
      "Kunduz Airport",
      "Kunduz",
      "AF-KDZ",
      "Konduz"
    ],
    "latitude": 36.6651,
    "longitude": 68.910797,
    "countryCode": "AF"
  },
  {
    "id": "loc-airport-oaz",
    "locationType": "airport",
    "code": "OAZ",
    "nameEn": "Camp Shorabak Airfield",
    "municipality": "Lashkar Gah",
    "placeNameEn": "Lashkar Gah",
    "placeKey": "af-lashkar-gah",
    "coordinatePrecision": "exact",
    "aliases": [
      "OAZ",
      "OAZI",
      "Camp Shorabak Airfield",
      "Lashkar Gah",
      "AF-HEL",
      "Camp Bastion, Camp Leatherneck"
    ],
    "latitude": 31.848735,
    "longitude": 64.223175,
    "countryCode": "AF"
  },
  {
    "id": "loc-airport-bbq",
    "locationType": "airport",
    "code": "BBQ",
    "nameEn": "Burton-Nibbs International Airport",
    "municipality": "Codrington",
    "placeNameEn": "Codrington",
    "placeKey": "ag-codrington",
    "coordinatePrecision": "exact",
    "aliases": [
      "BBQ",
      "AG-0001",
      "TAPB",
      "Burton-Nibbs International Airport",
      "Codrington",
      "AG-10",
      "Barbuda International Airport, New Barbuda Airport"
    ],
    "latitude": 17.621194,
    "longitude": -61.798347,
    "countryCode": "AG"
  },
  {
    "id": "loc-airport-anu",
    "locationType": "airport",
    "code": "ANU",
    "nameEn": "V. C. Bird International Airport",
    "municipality": "Osbourn",
    "placeNameEn": "Osbourn",
    "placeKey": "ag-osbourn",
    "coordinatePrecision": "exact",
    "aliases": [
      "ANU",
      "TAPA",
      "V. C. Bird International Airport",
      "Osbourn",
      "AG-03",
      "St. John's"
    ],
    "latitude": 17.1367,
    "longitude": -61.792702,
    "countryCode": "AG"
  },
  {
    "id": "loc-airport-axa",
    "locationType": "airport",
    "code": "AXA",
    "nameEn": "Clayton J. Lloyd International Airport",
    "municipality": "The Valley",
    "placeNameEn": "The Valley",
    "placeKey": "ai-the-valley",
    "coordinatePrecision": "exact",
    "aliases": [
      "AXA",
      "TQPF",
      "Clayton J. Lloyd International Airport",
      "The Valley",
      "AI-U-A",
      "Wallblake Airport"
    ],
    "latitude": 18.204773,
    "longitude": -63.05383,
    "countryCode": "AI"
  },
  {
    "id": "loc-airport-kfz",
    "locationType": "airport",
    "code": "KFZ",
    "nameEn": "Kukës International Airport",
    "municipality": "Kukës",
    "placeNameEn": "Kukës",
    "placeKey": "al-kukes",
    "coordinatePrecision": "exact",
    "aliases": [
      "KFZ",
      "LAKU",
      "Kukës International Airport",
      "Kukës",
      "AL-07"
    ],
    "latitude": 42.035802,
    "longitude": 20.415955,
    "countryCode": "AL"
  },
  {
    "id": "loc-airport-tia",
    "locationType": "airport",
    "code": "TIA",
    "nameEn": "Tirana International Airport Mother Teresa",
    "municipality": "Rinas",
    "placeNameEn": "Rinas",
    "placeKey": "al-rinas",
    "coordinatePrecision": "exact",
    "aliases": [
      "TIA",
      "LATI",
      "Tirana International Airport Mother Teresa",
      "Rinas",
      "AL-02",
      "Rinas International Airport, Aeroporti Nënë Tereza"
    ],
    "latitude": 41.4147,
    "longitude": 19.7206,
    "countryCode": "AL"
  },
  {
    "id": "loc-airport-yuk",
    "locationType": "airport",
    "code": "YUK",
    "nameEn": "Syunik Airport",
    "municipality": "Kapan",
    "placeNameEn": "Kapan",
    "placeKey": "am-kapan",
    "coordinatePrecision": "exact",
    "aliases": [
      "YUK",
      "AM-0001",
      "UDCK",
      "Syunik Airport",
      "Kapan",
      "AM-SU",
      "Սյունիքի օդանավակայան"
    ],
    "latitude": 39.202272,
    "longitude": 46.455204,
    "countryCode": "AM"
  },
  {
    "id": "loc-airport-lwn",
    "locationType": "airport",
    "code": "LWN",
    "nameEn": "Shirak International Airport",
    "municipality": "Gyumri",
    "placeNameEn": "Gyumri",
    "placeKey": "am-gyumri",
    "coordinatePrecision": "exact",
    "aliases": [
      "LWN",
      "UDSG",
      "Shirak International Airport",
      "Gyumri",
      "AM-SH",
      "UGEL"
    ],
    "latitude": 40.750401,
    "longitude": 43.859299,
    "countryCode": "AM"
  },
  {
    "id": "loc-airport-evn",
    "locationType": "airport",
    "code": "EVN",
    "nameEn": "Zvartnots International Airport",
    "municipality": "Yerevan",
    "placeNameEn": "Yerevan",
    "placeKey": "am-yerevan",
    "coordinatePrecision": "exact",
    "aliases": [
      "EVN",
      "UDYZ",
      "Zvartnots International Airport",
      "Yerevan",
      "AM-ER",
      "UGEE, Erevan Airport, Erivan Airport, Аэропорт Звартноц, Аэропорт Ереван"
    ],
    "latitude": 40.148941,
    "longitude": 44.397887,
    "countryCode": "AM"
  },
  {
    "id": "loc-airport-ctv",
    "locationType": "airport",
    "code": "CTV",
    "nameEn": "Catoca Airport",
    "municipality": "Saurimo",
    "placeNameEn": "Saurimo",
    "placeKey": "ao-saurimo",
    "coordinatePrecision": "exact",
    "aliases": [
      "CTV",
      "AO-0001",
      "FNCO",
      "Catoca Airport",
      "Saurimo",
      "AO-LSU",
      "Saurimo North"
    ],
    "latitude": -9.431359,
    "longitude": 20.311557,
    "countryCode": "AO"
  },
  {
    "id": "loc-airport-anl",
    "locationType": "airport",
    "code": "ANL",
    "nameEn": "Andulo Airport",
    "municipality": "Andulo",
    "placeNameEn": "Andulo",
    "placeKey": "ao-andulo",
    "coordinatePrecision": "exact",
    "aliases": [
      "ANL",
      "AO-0005",
      "Andulo Airport",
      "Andulo",
      "AO-BIE"
    ],
    "latitude": -11.4723,
    "longitude": 16.710899,
    "countryCode": "AO"
  },
  {
    "id": "loc-airport-cnz",
    "locationType": "airport",
    "code": "CNZ",
    "nameEn": "Cangamba Airport",
    "municipality": "Cangamba",
    "placeNameEn": "Cangamba",
    "placeKey": "ao-cangamba",
    "coordinatePrecision": "exact",
    "aliases": [
      "CNZ",
      "AO-CNZ",
      "Cangamba Airport",
      "Cangamba",
      "AO-MOX"
    ],
    "latitude": -13.7106,
    "longitude": 19.861099,
    "countryCode": "AO"
  },
  {
    "id": "loc-airport-drc",
    "locationType": "airport",
    "code": "DRC",
    "nameEn": "Dirico Airport",
    "municipality": "Dirico",
    "placeNameEn": "Dirico",
    "placeKey": "ao-dirico",
    "coordinatePrecision": "exact",
    "aliases": [
      "DRC",
      "AO-DRC",
      "Dirico Airport",
      "Dirico",
      "AO-CCU"
    ],
    "latitude": -17.981924,
    "longitude": 20.768061,
    "countryCode": "AO"
  },
  {
    "id": "loc-airport-ndf",
    "locationType": "airport",
    "code": "NDF",
    "nameEn": "N'dalatando Airport",
    "municipality": "N'dalatando",
    "placeNameEn": "N'dalatando",
    "placeKey": "ao-n-dalatando",
    "coordinatePrecision": "exact",
    "aliases": [
      "NDF",
      "AO-NDF",
      "N'dalatando Airport",
      "N'dalatando",
      "AO-CNO"
    ],
    "latitude": -9.280378,
    "longitude": 14.982432,
    "countryCode": "AO"
  },
  {
    "id": "loc-airport-azz",
    "locationType": "airport",
    "code": "AZZ",
    "nameEn": "Ambriz Airport",
    "municipality": "Ambriz",
    "placeNameEn": "Ambriz",
    "placeKey": "ao-ambriz",
    "coordinatePrecision": "exact",
    "aliases": [
      "AZZ",
      "FNAM",
      "Ambriz Airport",
      "Ambriz",
      "AO-BGO"
    ],
    "latitude": -7.86222,
    "longitude": 13.1161,
    "countryCode": "AO"
  },
  {
    "id": "loc-airport-ssy",
    "locationType": "airport",
    "code": "SSY",
    "nameEn": "Mbanza Congo Airport",
    "municipality": "Mbanza Congo",
    "placeNameEn": "Mbanza Congo",
    "placeKey": "ao-mbanza-congo",
    "coordinatePrecision": "exact",
    "aliases": [
      "SSY",
      "FNBC",
      "Mbanza Congo Airport",
      "Mbanza Congo",
      "AO-ZAI"
    ],
    "latitude": -6.269899845123291,
    "longitude": 14.246999740600586,
    "countryCode": "AO"
  },
  {
    "id": "loc-airport-bug",
    "locationType": "airport",
    "code": "BUG",
    "nameEn": "Benguela Airport",
    "municipality": "Benguela",
    "placeNameEn": "Benguela",
    "placeKey": "ao-benguela",
    "coordinatePrecision": "exact",
    "aliases": [
      "BUG",
      "FNBG",
      "Benguela Airport",
      "Benguela",
      "AO-BGU",
      "Aeroporto 17 de Setembro, Gen. V. Deslandes Airport"
    ],
    "latitude": -12.609,
    "longitude": 13.4037,
    "countryCode": "AO"
  },
  {
    "id": "loc-airport-nbj",
    "locationType": "airport",
    "code": "NBJ",
    "nameEn": "Dr. Antonio Agostinho Neto International Airport",
    "municipality": "Luanda (Ícolo e Bengo)",
    "placeNameEn": "Luanda (Ícolo e Bengo)",
    "placeKey": "ao-luanda-icolo-e-bengo",
    "coordinatePrecision": "exact",
    "aliases": [
      "NBJ",
      "FNBJ",
      "Dr. Antonio Agostinho Neto International Airport",
      "Luanda (Ícolo e Bengo)",
      "AO-LUA",
      "Novo Aeroporto Internacional de Luanda"
    ],
    "latitude": -9.050734,
    "longitude": 13.499078,
    "countryCode": "AO"
  },
  {
    "id": "loc-airport-ggc",
    "locationType": "airport",
    "code": "GGC",
    "nameEn": "Lumbala Airport",
    "municipality": "Lumbala N'guimbo",
    "placeNameEn": "Lumbala N'guimbo",
    "placeKey": "ao-lumbala-n-guimbo",
    "coordinatePrecision": "exact",
    "aliases": [
      "GGC",
      "FNBL",
      "Lumbala Airport",
      "Lumbala N'guimbo",
      "AO-MOX"
    ],
    "latitude": -14.105106,
    "longitude": 21.45083,
    "countryCode": "AO"
  },
  {
    "id": "loc-airport-cab",
    "locationType": "airport",
    "code": "CAB",
    "nameEn": "Cabinda Airport",
    "municipality": "Cabinda",
    "placeNameEn": "Cabinda",
    "placeKey": "ao-cabinda",
    "coordinatePrecision": "exact",
    "aliases": [
      "CAB",
      "FNCA",
      "Cabinda Airport",
      "Cabinda",
      "AO-CAB",
      "Maria Mambo Café"
    ],
    "latitude": -5.59839,
    "longitude": 12.188145,
    "countryCode": "AO"
  },
  {
    "id": "loc-airport-cff",
    "locationType": "airport",
    "code": "CFF",
    "nameEn": "Cafunfo Airport",
    "municipality": "Cafunfo",
    "placeNameEn": "Cafunfo",
    "placeKey": "ao-cafunfo",
    "coordinatePrecision": "exact",
    "aliases": [
      "CFF",
      "FNCF",
      "Cafunfo Airport",
      "Cafunfo",
      "AO-LNO"
    ],
    "latitude": -8.78361,
    "longitude": 17.9897,
    "countryCode": "AO"
  },
  {
    "id": "loc-airport-pgi",
    "locationType": "airport",
    "code": "PGI",
    "nameEn": "Chitato Airport",
    "municipality": "Chitato",
    "placeNameEn": "Chitato",
    "placeKey": "ao-chitato",
    "coordinatePrecision": "exact",
    "aliases": [
      "PGI",
      "FNCH",
      "Chitato Airport",
      "Chitato",
      "AO-LNO"
    ],
    "latitude": -7.35889,
    "longitude": 20.804701,
    "countryCode": "AO"
  },
  {
    "id": "loc-airport-knp",
    "locationType": "airport",
    "code": "KNP",
    "nameEn": "Kapanda Airport",
    "municipality": "Capanda",
    "placeNameEn": "Capanda",
    "placeKey": "ao-capanda",
    "coordinatePrecision": "exact",
    "aliases": [
      "KNP",
      "FNCP",
      "Kapanda Airport",
      "Capanda",
      "AO-MAL"
    ],
    "latitude": -9.76937,
    "longitude": 15.455319,
    "countryCode": "AO"
  },
  {
    "id": "loc-airport-cbt",
    "locationType": "airport",
    "code": "CBT",
    "nameEn": "Catumbela Airport",
    "municipality": "Catumbela",
    "placeNameEn": "Catumbela",
    "placeKey": "ao-catumbela",
    "coordinatePrecision": "exact",
    "aliases": [
      "CBT",
      "FNCT",
      "Catumbela Airport",
      "Catumbela",
      "AO-BGU"
    ],
    "latitude": -12.4792,
    "longitude": 13.4869,
    "countryCode": "AO"
  },
  {
    "id": "loc-airport-cti",
    "locationType": "airport",
    "code": "CTI",
    "nameEn": "Cuito Cuanavale Airport",
    "municipality": "Cuito Cuanavale",
    "placeNameEn": "Cuito Cuanavale",
    "placeKey": "ao-cuito-cuanavale",
    "coordinatePrecision": "exact",
    "aliases": [
      "CTI",
      "FNCV",
      "Cuito Cuanavale Airport",
      "Cuito Cuanavale",
      "AO-CCU"
    ],
    "latitude": -15.1603,
    "longitude": 19.156099,
    "countryCode": "AO"
  },
  {
    "id": "loc-airport-cxm",
    "locationType": "airport",
    "code": "CXM",
    "nameEn": "Camaxilo Airport",
    "municipality": "Camaxilo",
    "placeNameEn": "Camaxilo",
    "placeKey": "ao-camaxilo",
    "coordinatePrecision": "exact",
    "aliases": [
      "CXM",
      "FNCX",
      "Camaxilo Airport",
      "Camaxilo",
      "AO-LNO"
    ],
    "latitude": -8.37361,
    "longitude": 18.923599,
    "countryCode": "AO"
  },
  {
    "id": "loc-airport-cav",
    "locationType": "airport",
    "code": "CAV",
    "nameEn": "Cazombo Airport",
    "municipality": "Cazombo",
    "placeNameEn": "Cazombo",
    "placeKey": "ao-cazombo",
    "coordinatePrecision": "exact",
    "aliases": [
      "CAV",
      "FNCZ",
      "Cazombo Airport",
      "Cazombo",
      "AO-MOX"
    ],
    "latitude": -11.8931,
    "longitude": 22.916239,
    "countryCode": "AO"
  },
  {
    "id": "loc-airport-due",
    "locationType": "airport",
    "code": "DUE",
    "nameEn": "Dundo Airport",
    "municipality": "Chitato",
    "placeNameEn": "Chitato",
    "placeKey": "ao-chitato",
    "coordinatePrecision": "exact",
    "aliases": [
      "DUE",
      "FNDU",
      "Dundo Airport",
      "Chitato",
      "AO-LNO"
    ],
    "latitude": -7.400889873504639,
    "longitude": 20.818500518798828,
    "countryCode": "AO"
  },
  {
    "id": "loc-airport-vpe",
    "locationType": "airport",
    "code": "VPE",
    "nameEn": "Ngjiva Pereira Airport",
    "municipality": "Ngiva",
    "placeNameEn": "Ngiva",
    "placeKey": "ao-ngiva",
    "coordinatePrecision": "exact",
    "aliases": [
      "VPE",
      "FNGI",
      "Ngjiva Pereira Airport",
      "Ngiva",
      "AO-CNN",
      "Ngiva Airport, NGV, Ondjiva, 11 de Novembro"
    ],
    "latitude": -17.0435009003,
    "longitude": 15.683799743700002,
    "countryCode": "AO"
  },
  {
    "id": "loc-airport-nov",
    "locationType": "airport",
    "code": "NOV",
    "nameEn": "Albano Machado Airport",
    "municipality": "Huambo",
    "placeNameEn": "Huambo",
    "placeKey": "ao-huambo",
    "coordinatePrecision": "exact",
    "aliases": [
      "NOV",
      "FNHU",
      "Albano Machado Airport",
      "Huambo",
      "AO-HUA",
      "Nova Lisboa Airport"
    ],
    "latitude": -12.8089,
    "longitude": 15.7605,
    "countryCode": "AO"
  },
  {
    "id": "loc-airport-jmb",
    "locationType": "airport",
    "code": "JMB",
    "nameEn": "Jamba Airport",
    "municipality": "Jamba",
    "placeNameEn": "Jamba",
    "placeKey": "ao-jamba",
    "coordinatePrecision": "exact",
    "aliases": [
      "JMB",
      "FNJM",
      "Jamba Airport",
      "Jamba",
      "AO-HUI"
    ],
    "latitude": -14.698193,
    "longitude": 16.070148,
    "countryCode": "AO"
  },
  {
    "id": "loc-airport-svp",
    "locationType": "airport",
    "code": "SVP",
    "nameEn": "Kuito Airport",
    "municipality": "Kuito",
    "placeNameEn": "Kuito",
    "placeKey": "ao-kuito",
    "coordinatePrecision": "exact",
    "aliases": [
      "SVP",
      "FNKU",
      "Kuito Airport",
      "Kuito",
      "AO-BIE"
    ],
    "latitude": -12.404600143433,
    "longitude": 16.947399139404,
    "countryCode": "AO"
  },
  {
    "id": "loc-airport-llt",
    "locationType": "airport",
    "code": "LLT",
    "nameEn": "Lobito Airport",
    "municipality": "Lobito",
    "placeNameEn": "Lobito",
    "placeKey": "ao-lobito",
    "coordinatePrecision": "exact",
    "aliases": [
      "LLT",
      "FNLB",
      "Lobito Airport",
      "Lobito",
      "AO-BGU"
    ],
    "latitude": -12.3712,
    "longitude": 13.5366,
    "countryCode": "AO"
  },
  {
    "id": "loc-airport-lbz",
    "locationType": "airport",
    "code": "LBZ",
    "nameEn": "Lucapa Airport",
    "municipality": "Lucapa",
    "placeNameEn": "Lucapa",
    "placeKey": "ao-lucapa",
    "coordinatePrecision": "exact",
    "aliases": [
      "LBZ",
      "FNLK",
      "Lucapa Airport",
      "Lucapa",
      "AO-LNO",
      "Lukapa"
    ],
    "latitude": -8.442339,
    "longitude": 20.732701,
    "countryCode": "AO"
  },
  {
    "id": "loc-airport-lad",
    "locationType": "airport",
    "code": "LAD",
    "nameEn": "Quatro de Fevereiro International Airport",
    "municipality": "Luanda",
    "placeNameEn": "Luanda",
    "placeKey": "ao-luanda",
    "coordinatePrecision": "exact",
    "aliases": [
      "LAD",
      "FNLU",
      "Quatro de Fevereiro International Airport",
      "Luanda",
      "AO-LUA",
      "4 de Fevereiro"
    ],
    "latitude": -8.85837,
    "longitude": 13.2312,
    "countryCode": "AO"
  },
  {
    "id": "loc-airport-lzm",
    "locationType": "airport",
    "code": "LZM",
    "nameEn": "Luzamba Airport",
    "municipality": "Luzamba",
    "placeNameEn": "Luzamba",
    "placeKey": "ao-luzamba",
    "coordinatePrecision": "exact",
    "aliases": [
      "LZM",
      "FNLZ",
      "Luzamba Airport",
      "Luzamba",
      "AO-LNO",
      "Cuango"
    ],
    "latitude": -9.11596012115,
    "longitude": 18.049299240099998,
    "countryCode": "AO"
  },
  {
    "id": "loc-airport-meg",
    "locationType": "airport",
    "code": "MEG",
    "nameEn": "Malanje Airport",
    "municipality": "Malanje",
    "placeNameEn": "Malanje",
    "placeKey": "ao-malanje",
    "coordinatePrecision": "exact",
    "aliases": [
      "MEG",
      "FNMA",
      "Malanje Airport",
      "Malanje",
      "AO-MAL"
    ],
    "latitude": -9.525090217590332,
    "longitude": 16.312400817871094,
    "countryCode": "AO"
  },
  {
    "id": "loc-airport-spp",
    "locationType": "airport",
    "code": "SPP",
    "nameEn": "Menongue Airport",
    "municipality": "Menongue",
    "placeNameEn": "Menongue",
    "placeKey": "ao-menongue",
    "coordinatePrecision": "exact",
    "aliases": [
      "SPP",
      "FNME",
      "Menongue Airport",
      "Menongue",
      "AO-CCU"
    ],
    "latitude": -14.657600402832031,
    "longitude": 17.71980094909668,
    "countryCode": "AO"
  },
  {
    "id": "loc-airport-msz",
    "locationType": "airport",
    "code": "MSZ",
    "nameEn": "Welwitschia Mirabilis International Airport",
    "municipality": "Moçâmedes",
    "placeNameEn": "Moçâmedes",
    "placeKey": "ao-mocamedes",
    "coordinatePrecision": "exact",
    "aliases": [
      "MSZ",
      "FNMO",
      "Welwitschia Mirabilis International Airport",
      "Moçâmedes",
      "AO-NAM",
      "Moçâmedes, Namibe, Yuri Gagarin"
    ],
    "latitude": -15.2612,
    "longitude": 12.1468,
    "countryCode": "AO"
  },
  {
    "id": "loc-airport-gxg",
    "locationType": "airport",
    "code": "GXG",
    "nameEn": "Negage Airport",
    "municipality": "Negage",
    "placeNameEn": "Negage",
    "placeKey": "ao-negage",
    "coordinatePrecision": "exact",
    "aliases": [
      "GXG",
      "FNNG",
      "Negage Airport",
      "Negage",
      "AO-UIG"
    ],
    "latitude": -7.754509925842285,
    "longitude": 15.287699699401855,
    "countryCode": "AO"
  },
  {
    "id": "loc-airport-pbn",
    "locationType": "airport",
    "code": "PBN",
    "nameEn": "Porto Amboim Airport",
    "municipality": "Port Amboim",
    "placeNameEn": "Port Amboim",
    "placeKey": "ao-port-amboim",
    "coordinatePrecision": "exact",
    "aliases": [
      "PBN",
      "FNPA",
      "Porto Amboim Airport",
      "Port Amboim",
      "AO-CUS"
    ],
    "latitude": -10.722,
    "longitude": 13.7655,
    "countryCode": "AO"
  },
  {
    "id": "loc-airport-vhc",
    "locationType": "airport",
    "code": "VHC",
    "nameEn": "Saurimo Airport",
    "municipality": "Saurimo",
    "placeNameEn": "Saurimo",
    "placeKey": "ao-saurimo",
    "coordinatePrecision": "exact",
    "aliases": [
      "VHC",
      "FNSA",
      "Saurimo Airport",
      "Saurimo",
      "AO-LSU"
    ],
    "latitude": -9.68907,
    "longitude": 20.4319,
    "countryCode": "AO"
  },
  {
    "id": "loc-airport-sza",
    "locationType": "airport",
    "code": "SZA",
    "nameEn": "Soyo Airport",
    "municipality": "Soyo",
    "placeNameEn": "Soyo",
    "placeKey": "ao-soyo",
    "coordinatePrecision": "exact",
    "aliases": [
      "SZA",
      "FNSO",
      "Soyo Airport",
      "Soyo",
      "AO-ZAI"
    ],
    "latitude": -6.141089916229248,
    "longitude": 12.371800422668457,
    "countryCode": "AO"
  },
  {
    "id": "loc-airport-ndd",
    "locationType": "airport",
    "code": "NDD",
    "nameEn": "Sumbe Airport",
    "municipality": "Sumbe",
    "placeNameEn": "Sumbe",
    "placeKey": "ao-sumbe",
    "coordinatePrecision": "exact",
    "aliases": [
      "NDD",
      "FNSU",
      "Sumbe Airport",
      "Sumbe",
      "AO-CUS"
    ],
    "latitude": -11.1679,
    "longitude": 13.8475,
    "countryCode": "AO"
  },
  {
    "id": "loc-airport-ual",
    "locationType": "airport",
    "code": "UAL",
    "nameEn": "Luau Airport",
    "municipality": "Luau",
    "placeNameEn": "Luau",
    "placeKey": "ao-luau",
    "coordinatePrecision": "exact",
    "aliases": [
      "UAL",
      "FNUA",
      "Luau Airport",
      "Luau",
      "AO-MOX"
    ],
    "latitude": -10.7158,
    "longitude": 22.2311,
    "countryCode": "AO"
  },
  {
    "id": "loc-airport-sdd",
    "locationType": "airport",
    "code": "SDD",
    "nameEn": "Lubango Mukanka International Airport",
    "municipality": "Lubango",
    "placeNameEn": "Lubango",
    "placeKey": "ao-lubango",
    "coordinatePrecision": "exact",
    "aliases": [
      "SDD",
      "FNUB",
      "Lubango Mukanka International Airport",
      "Lubango",
      "AO-HUI"
    ],
    "latitude": -14.924839,
    "longitude": 13.576653,
    "countryCode": "AO"
  },
  {
    "id": "loc-airport-luo",
    "locationType": "airport",
    "code": "LUO",
    "nameEn": "Luena Airport",
    "municipality": "Luena",
    "placeNameEn": "Luena",
    "placeKey": "ao-luena",
    "coordinatePrecision": "exact",
    "aliases": [
      "LUO",
      "FNUE",
      "Luena Airport",
      "Luena",
      "AO-MOX"
    ],
    "latitude": -11.7681,
    "longitude": 19.897699,
    "countryCode": "AO"
  },
  {
    "id": "loc-airport-ugo",
    "locationType": "airport",
    "code": "UGO",
    "nameEn": "Uige Airport",
    "municipality": "Uige",
    "placeNameEn": "Uige",
    "placeKey": "ao-uige",
    "coordinatePrecision": "exact",
    "aliases": [
      "UGO",
      "FNUG",
      "Uige Airport",
      "Uige",
      "AO-UIG"
    ],
    "latitude": -7.60307,
    "longitude": 15.0278,
    "countryCode": "AO"
  },
  {
    "id": "loc-airport-ceo",
    "locationType": "airport",
    "code": "CEO",
    "nameEn": "Waco Kungo Airport",
    "municipality": "Waco Kungo",
    "placeNameEn": "Waco Kungo",
    "placeKey": "ao-waco-kungo",
    "coordinatePrecision": "exact",
    "aliases": [
      "CEO",
      "FNWK",
      "Waco Kungo Airport",
      "Waco Kungo",
      "AO-CUS"
    ],
    "latitude": -11.4264,
    "longitude": 15.1014,
    "countryCode": "AO"
  },
  {
    "id": "loc-airport-xgn",
    "locationType": "airport",
    "code": "XGN",
    "nameEn": "Xangongo Airport",
    "municipality": "Xangongo",
    "placeNameEn": "Xangongo",
    "placeKey": "ao-xangongo",
    "coordinatePrecision": "exact",
    "aliases": [
      "XGN",
      "FNXA",
      "Xangongo Airport",
      "Xangongo",
      "AO-CNN"
    ],
    "latitude": -16.755399703979492,
    "longitude": 14.965299606323242,
    "countryCode": "AO"
  },
  {
    "id": "loc-airport-arz",
    "locationType": "airport",
    "code": "ARZ",
    "nameEn": "N'zeto Airport",
    "municipality": "N'zeto",
    "placeNameEn": "N'zeto",
    "placeKey": "ao-n-zeto",
    "coordinatePrecision": "exact",
    "aliases": [
      "ARZ",
      "FNZE",
      "N'zeto Airport",
      "N'zeto",
      "AO-ZAI"
    ],
    "latitude": -7.259277,
    "longitude": 12.862355,
    "countryCode": "AO"
  },
  {
    "id": "loc-airport-nza",
    "locationType": "airport",
    "code": "NZA",
    "nameEn": "Nzagi Airport",
    "municipality": "Nzagi",
    "placeNameEn": "Nzagi",
    "placeKey": "ao-nzagi",
    "coordinatePrecision": "exact",
    "aliases": [
      "NZA",
      "FNZG",
      "Nzagi Airport",
      "Nzagi",
      "AO-LNO"
    ],
    "latitude": -7.716939926149999,
    "longitude": 21.358200073200003,
    "countryCode": "AO"
  },
  {
    "id": "loc-airport-wfr",
    "locationType": "airport",
    "code": "WFR",
    "nameEn": "[Duplicate] Wolf's Fang Runway",
    "municipality": "Queen Maud Island",
    "placeNameEn": "Queen Maud Island",
    "placeKey": "aq-queen-maud-island",
    "coordinatePrecision": "exact",
    "aliases": [
      "WFR",
      "AT98",
      "[Duplicate] Wolf's Fang Runway",
      "Queen Maud Island",
      "AQ-U-A",
      "AT98, Wolf's Fang Runway"
    ],
    "latitude": -71.5264,
    "longitude": 8.799459,
    "countryCode": "AQ"
  },
  {
    "id": "loc-airport-ugl",
    "locationType": "airport",
    "code": "UGL",
    "nameEn": "Union Glacier Blue-Ice Runway",
    "municipality": "Union Glacier",
    "placeNameEn": "Union Glacier",
    "placeKey": "aq-union-glacier",
    "coordinatePrecision": "exact",
    "aliases": [
      "UGL",
      "SCGC",
      "Union Glacier Blue-Ice Runway",
      "Union Glacier",
      "AQ-U-A"
    ],
    "latitude": -79.777778,
    "longitude": -83.320833,
    "countryCode": "AQ"
  },
  {
    "id": "loc-airport-tnm",
    "locationType": "airport",
    "code": "TNM",
    "nameEn": "Teniente Rodolfo Marsh Martin Airport",
    "municipality": "Villa Las Estrellas",
    "placeNameEn": "Villa Las Estrellas",
    "placeKey": "aq-villa-las-estrellas",
    "coordinatePrecision": "exact",
    "aliases": [
      "TNM",
      "SCRM",
      "Teniente Rodolfo Marsh Martin Airport",
      "Villa Las Estrellas",
      "AQ-U-A"
    ],
    "latitude": -62.191026,
    "longitude": -58.98669,
    "countryCode": "AQ"
  },
  {
    "id": "loc-airport-qrf",
    "locationType": "airport",
    "code": "QRF",
    "nameEn": "Bragado Airport",
    "municipality": "Bragado",
    "placeNameEn": "Bragado",
    "placeKey": "ar-bragado",
    "coordinatePrecision": "exact",
    "aliases": [
      "QRF",
      "AR-0005",
      "SA2X",
      "BRA",
      "Bragado Airport",
      "Bragado",
      "AR-B"
    ],
    "latitude": -35.145811,
    "longitude": -60.480294,
    "countryCode": "AR"
  },
  {
    "id": "loc-airport-cvi",
    "locationType": "airport",
    "code": "CVI",
    "nameEn": "Caleta Olivia Airport",
    "municipality": "Caleta Olivia",
    "placeNameEn": "Caleta Olivia",
    "placeKey": "ar-caleta-olivia",
    "coordinatePrecision": "exact",
    "aliases": [
      "CVI",
      "AR-0007",
      "CAO",
      "Caleta Olivia Airport",
      "Caleta Olivia",
      "AR-Z"
    ],
    "latitude": -46.37428,
    "longitude": -67.59409,
    "countryCode": "AR"
  },
  {
    "id": "loc-airport-cnt",
    "locationType": "airport",
    "code": "CNT",
    "nameEn": "Charata Airport",
    "municipality": "Charata",
    "placeNameEn": "Charata",
    "placeKey": "ar-charata",
    "coordinatePrecision": "exact",
    "aliases": [
      "CNT",
      "AR-0009",
      "CHA",
      "Charata Airport",
      "Charata",
      "AR-H"
    ],
    "latitude": -27.2164,
    "longitude": -61.2103,
    "countryCode": "AR"
  },
  {
    "id": "loc-airport-vgs",
    "locationType": "airport",
    "code": "VGS",
    "nameEn": "General Villegas Airport",
    "municipality": "General Villegas",
    "placeNameEn": "General Villegas",
    "placeKey": "ar-general-villegas",
    "coordinatePrecision": "exact",
    "aliases": [
      "VGS",
      "AR-0010",
      "GAS",
      "General Villegas Airport",
      "General Villegas",
      "AR-B"
    ],
    "latitude": -34.995728,
    "longitude": -62.999725,
    "countryCode": "AR"
  },
  {
    "id": "loc-airport-lmd",
    "locationType": "airport",
    "code": "LMD",
    "nameEn": "Los Menucos Airport",
    "municipality": "Los Menucos",
    "placeNameEn": "Los Menucos",
    "placeKey": "ar-los-menucos",
    "coordinatePrecision": "exact",
    "aliases": [
      "LMD",
      "AR-0011",
      "MCO",
      "Los Menucos Airport",
      "Los Menucos",
      "AR-R"
    ],
    "latitude": -40.817699,
    "longitude": -68.074699,
    "countryCode": "AR"
  },
  {
    "id": "loc-airport-vcf",
    "locationType": "airport",
    "code": "VCF",
    "nameEn": "Valcheta Airport",
    "municipality": "Valcheta",
    "placeNameEn": "Valcheta",
    "placeKey": "ar-valcheta",
    "coordinatePrecision": "exact",
    "aliases": [
      "VCF",
      "AR-0017",
      "VAL",
      "Valcheta Airport",
      "Valcheta",
      "AR-R"
    ],
    "latitude": -40.700001,
    "longitude": -66.150002,
    "countryCode": "AR"
  },
  {
    "id": "loc-airport-cpg",
    "locationType": "airport",
    "code": "CPG",
    "nameEn": "Carmen de Patagones Airport",
    "municipality": "Carmen de Patagones",
    "placeNameEn": "Carmen de Patagones",
    "placeKey": "ar-carmen-de-patagones",
    "coordinatePrecision": "exact",
    "aliases": [
      "CPG",
      "AR-0390",
      "SA3R",
      "PAT",
      "Carmen de Patagones Airport",
      "Carmen de Patagones",
      "AR-B"
    ],
    "latitude": -40.7781,
    "longitude": -62.9803,
    "countryCode": "AR"
  },
  {
    "id": "loc-airport-lcp",
    "locationType": "airport",
    "code": "LCP",
    "nameEn": "Loncopue Airport",
    "municipality": "Loncopue",
    "placeNameEn": "Loncopue",
    "placeKey": "ar-loncopue",
    "coordinatePrecision": "exact",
    "aliases": [
      "LCP",
      "Loncopue Airport",
      "Loncopue",
      "AR-Q",
      "SA18"
    ],
    "latitude": -38.081902,
    "longitude": -70.643898,
    "countryCode": "AR"
  },
  {
    "id": "loc-airport-mjr",
    "locationType": "airport",
    "code": "MJR",
    "nameEn": "Miramar Airport",
    "municipality": "Miramar",
    "placeNameEn": "Miramar",
    "placeKey": "ar-miramar",
    "coordinatePrecision": "exact",
    "aliases": [
      "MJR",
      "SA14",
      "SAEM",
      "IRA",
      "Miramar Airport",
      "Miramar",
      "AR-B"
    ],
    "latitude": -38.2271,
    "longitude": -57.8697,
    "countryCode": "AR"
  },
  {
    "id": "loc-airport-coc",
    "locationType": "airport",
    "code": "COC",
    "nameEn": "Comodoro Pierrestegui Airport",
    "municipality": "Concordia",
    "placeNameEn": "Concordia",
    "placeKey": "ar-concordia",
    "coordinatePrecision": "exact",
    "aliases": [
      "COC",
      "SAAC",
      "DIA",
      "Comodoro Pierrestegui Airport",
      "Concordia",
      "AR-E"
    ],
    "latitude": -31.2969,
    "longitude": -57.9966,
    "countryCode": "AR"
  },
  {
    "id": "loc-airport-ghu",
    "locationType": "airport",
    "code": "GHU",
    "nameEn": "Gualeguaychu Airport",
    "municipality": "Gualeguaychu",
    "placeNameEn": "Gualeguaychu",
    "placeKey": "ar-gualeguaychu",
    "coordinatePrecision": "exact",
    "aliases": [
      "GHU",
      "SAAG",
      "GUA",
      "Gualeguaychu Airport",
      "Gualeguaychu",
      "AR-E"
    ],
    "latitude": -33.005567,
    "longitude": -58.612833,
    "countryCode": "AR"
  },
  {
    "id": "loc-airport-pra",
    "locationType": "airport",
    "code": "PRA",
    "nameEn": "General Urquiza Airport",
    "municipality": "Parana",
    "placeNameEn": "Parana",
    "placeKey": "ar-parana",
    "coordinatePrecision": "exact",
    "aliases": [
      "PRA",
      "SAAP",
      "PAR",
      "General Urquiza Airport",
      "Parana",
      "AR-E"
    ],
    "latitude": -31.7948,
    "longitude": -60.4804,
    "countryCode": "AR"
  },
  {
    "id": "loc-airport-ros",
    "locationType": "airport",
    "code": "ROS",
    "nameEn": "Rosario Islas Malvinas International Airport",
    "municipality": "Rosario",
    "placeNameEn": "Rosario",
    "placeKey": "ar-rosario",
    "coordinatePrecision": "exact",
    "aliases": [
      "ROS",
      "SAAR",
      "Rosario Islas Malvinas International Airport",
      "Rosario",
      "AR-S",
      "Fisherton Airport"
    ],
    "latitude": -32.9036,
    "longitude": -60.785,
    "countryCode": "AR"
  },
  {
    "id": "loc-airport-sfn",
    "locationType": "airport",
    "code": "SFN",
    "nameEn": "Sauce Viejo Airport",
    "municipality": "Santa Fe",
    "placeNameEn": "Santa Fe",
    "placeKey": "ar-santa-fe",
    "coordinatePrecision": "exact",
    "aliases": [
      "SFN",
      "SAAV",
      "SVO",
      "Sauce Viejo Airport",
      "Santa Fe",
      "AR-S"
    ],
    "latitude": -31.7117,
    "longitude": -60.8117,
    "countryCode": "AR"
  },
  {
    "id": "loc-airport-aep",
    "locationType": "airport",
    "code": "AEP",
    "nameEn": "Aeroparque Jorge Newbery",
    "municipality": "Buenos Aires",
    "placeNameEn": "Buenos Aires",
    "placeKey": "ar-buenos-aires",
    "coordinatePrecision": "exact",
    "aliases": [
      "AEP",
      "SABE",
      "AER",
      "Aeroparque Jorge Newbery",
      "Buenos Aires",
      "AR-C"
    ],
    "latitude": -34.559419,
    "longitude": -58.415536,
    "countryCode": "AR"
  },
  {
    "id": "loc-airport-lcm",
    "locationType": "airport",
    "code": "LCM",
    "nameEn": "La Cumbre Airport",
    "municipality": "La Cumbre",
    "placeNameEn": "La Cumbre",
    "placeKey": "ar-la-cumbre",
    "coordinatePrecision": "exact",
    "aliases": [
      "LCM",
      "SACC",
      "CUM",
      "La Cumbre Airport",
      "La Cumbre",
      "AR-X"
    ],
    "latitude": -31.0058,
    "longitude": -64.531898,
    "countryCode": "AR"
  },
  {
    "id": "loc-airport-cor",
    "locationType": "airport",
    "code": "COR",
    "nameEn": "Ingeniero Aeronáutico Ambrosio L.V. Taravella International Airport",
    "municipality": "Cordoba",
    "placeNameEn": "Cordoba",
    "placeKey": "ar-cordoba",
    "coordinatePrecision": "exact",
    "aliases": [
      "COR",
      "SACO",
      "CBA",
      "Ingeniero Aeronáutico Ambrosio L.V. Taravella International Airport",
      "Cordoba",
      "AR-X"
    ],
    "latitude": -31.312346,
    "longitude": -64.208329,
    "countryCode": "AR"
  },
  {
    "id": "loc-airport-lpg",
    "locationType": "airport",
    "code": "LPG",
    "nameEn": "La Plata Airport",
    "municipality": "La Plata",
    "placeNameEn": "La Plata",
    "placeKey": "ar-la-plata",
    "coordinatePrecision": "exact",
    "aliases": [
      "LPG",
      "SADL",
      "PTA",
      "La Plata Airport",
      "La Plata",
      "AR-B"
    ],
    "latitude": -34.9722,
    "longitude": -57.8947,
    "countryCode": "AR"
  },
  {
    "id": "loc-airport-epa",
    "locationType": "airport",
    "code": "EPA",
    "nameEn": "El Palomar Airport",
    "municipality": "El Palomar",
    "placeNameEn": "El Palomar",
    "placeKey": "ar-el-palomar",
    "coordinatePrecision": "exact",
    "aliases": [
      "EPA",
      "SADP",
      "PAL",
      "El Palomar Airport",
      "El Palomar",
      "AR-B"
    ],
    "latitude": -34.6099,
    "longitude": -58.6126,
    "countryCode": "AR"
  },
  {
    "id": "loc-airport-eze",
    "locationType": "airport",
    "code": "EZE",
    "nameEn": "Ezeiza International Airport - Ministro Pistarini",
    "municipality": "Buenos Aires (Ezeiza)",
    "placeNameEn": "Buenos Aires (Ezeiza)",
    "placeKey": "ar-buenos-aires-ezeiza",
    "coordinatePrecision": "exact",
    "aliases": [
      "EZE",
      "SAEZ",
      "Ezeiza International Airport - Ministro Pistarini",
      "Buenos Aires (Ezeiza)",
      "AR-B",
      "BUE, Ezeiza International Airport"
    ],
    "latitude": -34.8222,
    "longitude": -58.5358,
    "countryCode": "AR"
  },
  {
    "id": "loc-airport-raf",
    "locationType": "airport",
    "code": "RAF",
    "nameEn": "Rafaela Airport",
    "municipality": "Rafaela",
    "placeNameEn": "Rafaela",
    "placeKey": "ar-rafaela",
    "coordinatePrecision": "exact",
    "aliases": [
      "RAF",
      "SAFR",
      "RLA",
      "Rafaela Airport",
      "Rafaela",
      "AR-S"
    ],
    "latitude": -31.2825,
    "longitude": -61.5017,
    "countryCode": "AR"
  },
  {
    "id": "loc-airport-ncj",
    "locationType": "airport",
    "code": "NCJ",
    "nameEn": "Sunchales Aeroclub Airport",
    "municipality": "Sunchales",
    "placeNameEn": "Sunchales",
    "placeKey": "ar-sunchales",
    "coordinatePrecision": "exact",
    "aliases": [
      "NCJ",
      "SAFS",
      "SCA",
      "Sunchales Aeroclub Airport",
      "Sunchales",
      "AR-S"
    ],
    "latitude": -30.9575,
    "longitude": -61.5283,
    "countryCode": "AR"
  },
  {
    "id": "loc-airport-hos",
    "locationType": "airport",
    "code": "HOS",
    "nameEn": "Chos Malal Airport",
    "municipality": "Chos Malal",
    "placeNameEn": "Chos Malal",
    "placeKey": "ar-chos-malal",
    "coordinatePrecision": "exact",
    "aliases": [
      "HOS",
      "SAHC",
      "CHM",
      "Chos Malal Airport",
      "Chos Malal",
      "AR-Q"
    ],
    "latitude": -37.444698,
    "longitude": -70.222504,
    "countryCode": "AR"
  },
  {
    "id": "loc-airport-cvh",
    "locationType": "airport",
    "code": "CVH",
    "nameEn": "Caviahue Airport",
    "municipality": "Lafontaine",
    "placeNameEn": "Lafontaine",
    "placeKey": "ar-lafontaine",
    "coordinatePrecision": "exact",
    "aliases": [
      "CVH",
      "SAHE",
      "Caviahue Airport",
      "Lafontaine",
      "AR-Q"
    ],
    "latitude": -37.851398,
    "longitude": -71.009201,
    "countryCode": "AR"
  },
  {
    "id": "loc-airport-gnr",
    "locationType": "airport",
    "code": "GNR",
    "nameEn": "Dr. Arturo H. Illia Airport",
    "municipality": "General Roca",
    "placeNameEn": "General Roca",
    "placeKey": "ar-general-roca",
    "coordinatePrecision": "exact",
    "aliases": [
      "GNR",
      "SAHR",
      "Dr. Arturo H. Illia Airport",
      "General Roca",
      "AR-R"
    ],
    "latitude": -39.000702,
    "longitude": -67.620499,
    "countryCode": "AR"
  },
  {
    "id": "loc-airport-rds",
    "locationType": "airport",
    "code": "RDS",
    "nameEn": "Rincon De Los Sauces Airport",
    "municipality": "Rincon de los Sauces",
    "placeNameEn": "Rincon de los Sauces",
    "placeKey": "ar-rincon-de-los-sauces",
    "coordinatePrecision": "exact",
    "aliases": [
      "RDS",
      "SAHS",
      "RIN",
      "Rincon De Los Sauces Airport",
      "Rincon de los Sauces",
      "AR-Q"
    ],
    "latitude": -37.390598,
    "longitude": -68.904198,
    "countryCode": "AR"
  },
  {
    "id": "loc-airport-apz",
    "locationType": "airport",
    "code": "APZ",
    "nameEn": "Zapala Airport",
    "municipality": "Zapala",
    "placeNameEn": "Zapala",
    "placeKey": "ar-zapala",
    "coordinatePrecision": "exact",
    "aliases": [
      "APZ",
      "SAHZ",
      "ZAP",
      "Zapala Airport",
      "Zapala",
      "AR-Q"
    ],
    "latitude": -38.975498,
    "longitude": -70.113602,
    "countryCode": "AR"
  },
  {
    "id": "loc-airport-mdz",
    "locationType": "airport",
    "code": "MDZ",
    "nameEn": "Governor Francisco Gabrielli International Airport",
    "municipality": "Mendoza",
    "placeNameEn": "Mendoza",
    "placeKey": "ar-mendoza",
    "coordinatePrecision": "exact",
    "aliases": [
      "MDZ",
      "SAME",
      "DOZ",
      "Governor Francisco Gabrielli International Airport",
      "Mendoza",
      "AR-M",
      "El Plumerillo International Airport"
    ],
    "latitude": -32.831699,
    "longitude": -68.7929,
    "countryCode": "AR"
  },
  {
    "id": "loc-airport-lgs",
    "locationType": "airport",
    "code": "LGS",
    "nameEn": "Comodoro D.R. Salomón Airport",
    "municipality": "Malargue",
    "placeNameEn": "Malargue",
    "placeKey": "ar-malargue",
    "coordinatePrecision": "exact",
    "aliases": [
      "LGS",
      "SAMM",
      "MLG",
      "Comodoro D.R. Salomón Airport",
      "Malargue",
      "AR-M"
    ],
    "latitude": -35.493599,
    "longitude": -69.574303,
    "countryCode": "AR"
  },
  {
    "id": "loc-airport-afa",
    "locationType": "airport",
    "code": "AFA",
    "nameEn": "Suboficial Ay Santiago Germano Airport",
    "municipality": "San Rafael",
    "placeNameEn": "San Rafael",
    "placeKey": "ar-san-rafael",
    "coordinatePrecision": "exact",
    "aliases": [
      "AFA",
      "SAMR",
      "SRA",
      "Suboficial Ay Santiago Germano Airport",
      "San Rafael",
      "AR-M"
    ],
    "latitude": -34.588299,
    "longitude": -68.4039,
    "countryCode": "AR"
  },
  {
    "id": "loc-airport-ctc",
    "locationType": "airport",
    "code": "CTC",
    "nameEn": "Coronel Felipe Varela International Airport",
    "municipality": "Catamarca",
    "placeNameEn": "Catamarca",
    "placeKey": "ar-catamarca",
    "coordinatePrecision": "exact",
    "aliases": [
      "CTC",
      "SANC",
      "CAT",
      "Coronel Felipe Varela International Airport",
      "Catamarca",
      "AR-K"
    ],
    "latitude": -28.593117,
    "longitude": -65.7512,
    "countryCode": "AR"
  },
  {
    "id": "loc-airport-sde",
    "locationType": "airport",
    "code": "SDE",
    "nameEn": "Vicecomodoro Angel D. La Paz Aragonés Airport",
    "municipality": "Santiago del Estero",
    "placeNameEn": "Santiago del Estero",
    "placeKey": "ar-santiago-del-estero",
    "coordinatePrecision": "exact",
    "aliases": [
      "SDE",
      "SANE",
      "Vicecomodoro Angel D. La Paz Aragonés Airport",
      "Santiago del Estero",
      "AR-G"
    ],
    "latitude": -27.765556335399996,
    "longitude": -64.3099975586,
    "countryCode": "AR"
  },
  {
    "id": "loc-airport-irj",
    "locationType": "airport",
    "code": "IRJ",
    "nameEn": "Capitan V A Almonacid Airport",
    "municipality": "La Rioja",
    "placeNameEn": "La Rioja",
    "placeKey": "ar-la-rioja",
    "coordinatePrecision": "exact",
    "aliases": [
      "IRJ",
      "SANL",
      "LAR",
      "Capitan V A Almonacid Airport",
      "La Rioja",
      "AR-F"
    ],
    "latitude": -29.381599,
    "longitude": -66.795799,
    "countryCode": "AR"
  },
  {
    "id": "loc-airport-rhd",
    "locationType": "airport",
    "code": "RHD",
    "nameEn": "Termas de Río Hondo international Airport",
    "municipality": "Termas de Río Hondo",
    "placeNameEn": "Termas de Río Hondo",
    "placeKey": "ar-termas-de-rio-hondo",
    "coordinatePrecision": "exact",
    "aliases": [
      "RHD",
      "SANR",
      "TRH",
      "Termas de Río Hondo international Airport",
      "Termas de Río Hondo",
      "AR-G"
    ],
    "latitude": -27.4966,
    "longitude": -64.93595,
    "countryCode": "AR"
  },
  {
    "id": "loc-airport-tuc",
    "locationType": "airport",
    "code": "TUC",
    "nameEn": "Teniente Benjamín Matienzo International Airport",
    "municipality": "San Miguel de Tucumán",
    "placeNameEn": "San Miguel de Tucumán",
    "placeKey": "ar-san-miguel-de-tucuman",
    "coordinatePrecision": "exact",
    "aliases": [
      "TUC",
      "SANT",
      "Teniente Benjamín Matienzo International Airport",
      "San Miguel de Tucumán",
      "AR-T"
    ],
    "latitude": -26.837397,
    "longitude": -65.104195,
    "countryCode": "AR"
  },
  {
    "id": "loc-airport-uaq",
    "locationType": "airport",
    "code": "UAQ",
    "nameEn": "Domingo Faustino Sarmiento Airport",
    "municipality": "San Juan",
    "placeNameEn": "San Juan",
    "placeKey": "ar-san-juan",
    "coordinatePrecision": "exact",
    "aliases": [
      "UAQ",
      "SANU",
      "JUA",
      "Domingo Faustino Sarmiento Airport",
      "San Juan",
      "AR-J"
    ],
    "latitude": -31.571501,
    "longitude": -68.418198,
    "countryCode": "AR"
  },
  {
    "id": "loc-airport-crr",
    "locationType": "airport",
    "code": "CRR",
    "nameEn": "Ceres Airport",
    "municipality": "Ceres",
    "placeNameEn": "Ceres",
    "placeKey": "ar-ceres",
    "coordinatePrecision": "exact",
    "aliases": [
      "CRR",
      "SANW",
      "ERE",
      "Ceres Airport",
      "Ceres",
      "AR-S"
    ],
    "latitude": -29.872292,
    "longitude": -61.927925,
    "countryCode": "AR"
  },
  {
    "id": "loc-airport-rcu",
    "locationType": "airport",
    "code": "RCU",
    "nameEn": "Area De Material Airport",
    "municipality": "Rio Cuarto",
    "placeNameEn": "Rio Cuarto",
    "placeKey": "ar-rio-cuarto",
    "coordinatePrecision": "exact",
    "aliases": [
      "RCU",
      "SAOC",
      "TRC",
      "Area De Material Airport",
      "Rio Cuarto",
      "AR-X"
    ],
    "latitude": -33.085098,
    "longitude": -64.261299,
    "countryCode": "AR"
  },
  {
    "id": "loc-airport-vdr",
    "locationType": "airport",
    "code": "VDR",
    "nameEn": "Villa Dolores Airport",
    "municipality": "Villa Dolores",
    "placeNameEn": "Villa Dolores",
    "placeKey": "ar-villa-dolores",
    "coordinatePrecision": "exact",
    "aliases": [
      "VDR",
      "SAOD",
      "LDR",
      "Villa Dolores Airport",
      "Villa Dolores",
      "AR-X"
    ],
    "latitude": -31.9452,
    "longitude": -65.146301,
    "countryCode": "AR"
  },
  {
    "id": "loc-airport-vme",
    "locationType": "airport",
    "code": "VME",
    "nameEn": "Villa Reynolds Airport",
    "municipality": "Villa Mercedes",
    "placeNameEn": "Villa Mercedes",
    "placeKey": "ar-villa-mercedes",
    "coordinatePrecision": "exact",
    "aliases": [
      "VME",
      "SAOR",
      "RYD",
      "Villa Reynolds Airport",
      "Villa Mercedes",
      "AR-D",
      "Pringles"
    ],
    "latitude": -33.7299003601,
    "longitude": -65.3873977661,
    "countryCode": "AR"
  },
  {
    "id": "loc-airport-rlo",
    "locationType": "airport",
    "code": "RLO",
    "nameEn": "Valle Del Conlara International Airport",
    "municipality": "Merlo",
    "placeNameEn": "Merlo",
    "placeKey": "ar-merlo",
    "coordinatePrecision": "exact",
    "aliases": [
      "RLO",
      "SAOS",
      "SRC",
      "Valle Del Conlara International Airport",
      "Merlo",
      "AR-D"
    ],
    "latitude": -32.384701,
    "longitude": -65.186501,
    "countryCode": "AR"
  },
  {
    "id": "loc-airport-luq",
    "locationType": "airport",
    "code": "LUQ",
    "nameEn": "Brigadier Mayor D Cesar Raul Ojeda Airport",
    "municipality": "San Luis",
    "placeNameEn": "San Luis",
    "placeKey": "ar-san-luis",
    "coordinatePrecision": "exact",
    "aliases": [
      "LUQ",
      "SAOU",
      "UIS",
      "Brigadier Mayor D Cesar Raul Ojeda Airport",
      "San Luis",
      "AR-D"
    ],
    "latitude": -33.273201,
    "longitude": -66.3564,
    "countryCode": "AR"
  },
  {
    "id": "loc-airport-cnq",
    "locationType": "airport",
    "code": "CNQ",
    "nameEn": "Corrientes Airport",
    "municipality": "Corrientes",
    "placeNameEn": "Corrientes",
    "placeKey": "ar-corrientes",
    "coordinatePrecision": "exact",
    "aliases": [
      "CNQ",
      "SARC",
      "CRR",
      "Corrientes Airport",
      "Corrientes",
      "AR-W"
    ],
    "latitude": -27.4455,
    "longitude": -58.7619,
    "countryCode": "AR"
  },
  {
    "id": "loc-airport-res",
    "locationType": "airport",
    "code": "RES",
    "nameEn": "Resistencia International Airport",
    "municipality": "Resistencia",
    "placeNameEn": "Resistencia",
    "placeKey": "ar-resistencia",
    "coordinatePrecision": "exact",
    "aliases": [
      "RES",
      "SARE",
      "SIS",
      "Resistencia International Airport",
      "Resistencia",
      "AR-H"
    ],
    "latitude": -27.44991,
    "longitude": -59.056125,
    "countryCode": "AR"
  },
  {
    "id": "loc-airport-fma",
    "locationType": "airport",
    "code": "FMA",
    "nameEn": "Formosa National Airport",
    "municipality": "Formosa",
    "placeNameEn": "Formosa",
    "placeKey": "ar-formosa",
    "coordinatePrecision": "exact",
    "aliases": [
      "FMA",
      "SARF",
      "FSA",
      "Formosa National Airport",
      "Formosa",
      "AR-P",
      "Aeropuerto Nacional de Formosa"
    ],
    "latitude": -26.2127,
    "longitude": -58.2281,
    "countryCode": "AR"
  },
  {
    "id": "loc-airport-igr",
    "locationType": "airport",
    "code": "IGR",
    "nameEn": "Cataratas Del Iguazú International Airport",
    "municipality": "Puerto Iguazu",
    "placeNameEn": "Puerto Iguazu",
    "placeKey": "ar-puerto-iguazu",
    "coordinatePrecision": "exact",
    "aliases": [
      "IGR",
      "SARI",
      "IGU",
      "Cataratas Del Iguazú International Airport",
      "Puerto Iguazu",
      "AR-N",
      "Iguaçu, Mayor Carlos Eduardo Krause Airport"
    ],
    "latitude": -25.737301,
    "longitude": -54.4734,
    "countryCode": "AR"
  },
  {
    "id": "loc-airport-aol",
    "locationType": "airport",
    "code": "AOL",
    "nameEn": "Paso De Los Libres Airport",
    "municipality": "Paso de los Libres",
    "placeNameEn": "Paso de los Libres",
    "placeKey": "ar-paso-de-los-libres",
    "coordinatePrecision": "exact",
    "aliases": [
      "AOL",
      "SARL",
      "LIB",
      "Paso De Los Libres Airport",
      "Paso de los Libres",
      "AR-W"
    ],
    "latitude": -29.6894,
    "longitude": -57.1521,
    "countryCode": "AR"
  },
  {
    "id": "loc-airport-mcs",
    "locationType": "airport",
    "code": "MCS",
    "nameEn": "Monte Caseros Airport",
    "municipality": "Monte Caseros",
    "placeNameEn": "Monte Caseros",
    "placeKey": "ar-monte-caseros",
    "coordinatePrecision": "exact",
    "aliases": [
      "MCS",
      "SARM",
      "Monte Caseros Airport",
      "Monte Caseros",
      "AR-W"
    ],
    "latitude": -30.2719,
    "longitude": -57.6402,
    "countryCode": "AR"
  },
  {
    "id": "loc-airport-pss",
    "locationType": "airport",
    "code": "PSS",
    "nameEn": "Libertador Gral D Jose De San Martin Airport",
    "municipality": "Posadas",
    "placeNameEn": "Posadas",
    "placeKey": "ar-posadas",
    "coordinatePrecision": "exact",
    "aliases": [
      "PSS",
      "SARP",
      "POS",
      "Libertador Gral D Jose De San Martin Airport",
      "Posadas",
      "AR-N"
    ],
    "latitude": -27.3858,
    "longitude": -55.9707,
    "countryCode": "AR"
  },
  {
    "id": "loc-airport-prq",
    "locationType": "airport",
    "code": "PRQ",
    "nameEn": "Termal Airport",
    "municipality": "Presidencia Roque Sáenz Peña",
    "placeNameEn": "Presidencia Roque Sáenz Peña",
    "placeKey": "ar-presidencia-roque-saenz-pena",
    "coordinatePrecision": "exact",
    "aliases": [
      "PRQ",
      "SARS",
      "PSP",
      "Termal Airport",
      "Presidencia Roque Sáenz Peña",
      "AR-H"
    ],
    "latitude": -26.753611,
    "longitude": -60.492222,
    "countryCode": "AR"
  },
  {
    "id": "loc-airport-sla",
    "locationType": "airport",
    "code": "SLA",
    "nameEn": "Martín Miguel de Güemes International Airport",
    "municipality": "Salta",
    "placeNameEn": "Salta",
    "placeKey": "ar-salta",
    "coordinatePrecision": "exact",
    "aliases": [
      "SLA",
      "SASA",
      "SAL",
      "Martín Miguel de Güemes International Airport",
      "Salta",
      "AR-A"
    ],
    "latitude": -24.856001,
    "longitude": -65.486198,
    "countryCode": "AR"
  },
  {
    "id": "loc-airport-juj",
    "locationType": "airport",
    "code": "JUJ",
    "nameEn": "Gobernador Horacio Guzman International Airport",
    "municipality": "San Salvador de Jujuy",
    "placeNameEn": "San Salvador de Jujuy",
    "placeKey": "ar-san-salvador-de-jujuy",
    "coordinatePrecision": "exact",
    "aliases": [
      "JUJ",
      "SASJ",
      "Gobernador Horacio Guzman International Airport",
      "San Salvador de Jujuy",
      "AR-Y"
    ],
    "latitude": -24.392799,
    "longitude": -65.097801,
    "countryCode": "AR"
  },
  {
    "id": "loc-airport-ora",
    "locationType": "airport",
    "code": "ORA",
    "nameEn": "Orán Airport",
    "municipality": "Orán",
    "placeNameEn": "Orán",
    "placeKey": "ar-oran",
    "coordinatePrecision": "exact",
    "aliases": [
      "ORA",
      "SASO",
      "Orán Airport",
      "Orán",
      "AR-A"
    ],
    "latitude": -23.1528,
    "longitude": -64.329201,
    "countryCode": "AR"
  },
  {
    "id": "loc-airport-ttg",
    "locationType": "airport",
    "code": "TTG",
    "nameEn": "General Enrique Mosconi Airport",
    "municipality": "Tartagal",
    "placeNameEn": "Tartagal",
    "placeKey": "ar-tartagal",
    "coordinatePrecision": "exact",
    "aliases": [
      "TTG",
      "SAST",
      "TAR",
      "General Enrique Mosconi Airport",
      "Tartagal",
      "AR-A"
    ],
    "latitude": -22.616877,
    "longitude": -63.793015,
    "countryCode": "AR"
  },
  {
    "id": "loc-airport-clx",
    "locationType": "airport",
    "code": "CLX",
    "nameEn": "Aeródromo de Clorinda",
    "municipality": "Clorinda",
    "placeNameEn": "Clorinda",
    "placeKey": "ar-clorinda",
    "coordinatePrecision": "exact",
    "aliases": [
      "CLX",
      "SATC",
      "CLO",
      "Aeródromo de Clorinda",
      "Clorinda",
      "AR-P"
    ],
    "latitude": -25.3036,
    "longitude": -57.7344,
    "countryCode": "AR"
  },
  {
    "id": "loc-airport-elo",
    "locationType": "airport",
    "code": "ELO",
    "nameEn": "El Dorado Airport",
    "municipality": "El Dorado",
    "placeNameEn": "El Dorado",
    "placeKey": "ar-el-dorado",
    "coordinatePrecision": "exact",
    "aliases": [
      "ELO",
      "SATD",
      "ELD",
      "El Dorado Airport",
      "El Dorado",
      "AR-N"
    ],
    "latitude": -26.397499,
    "longitude": -54.574699,
    "countryCode": "AR"
  },
  {
    "id": "loc-airport-oya",
    "locationType": "airport",
    "code": "OYA",
    "nameEn": "Goya Airport",
    "municipality": "Goya",
    "placeNameEn": "Goya",
    "placeKey": "ar-goya",
    "coordinatePrecision": "exact",
    "aliases": [
      "OYA",
      "SATG",
      "GOY",
      "Goya Airport",
      "Goya",
      "AR-W"
    ],
    "latitude": -29.1058,
    "longitude": -59.2189,
    "countryCode": "AR"
  },
  {
    "id": "loc-airport-lls",
    "locationType": "airport",
    "code": "LLS",
    "nameEn": "Alferez Armando Rodriguez Airport",
    "municipality": "Las Lomitas",
    "placeNameEn": "Las Lomitas",
    "placeKey": "ar-las-lomitas",
    "coordinatePrecision": "exact",
    "aliases": [
      "LLS",
      "SATK",
      "ITA",
      "Alferez Armando Rodriguez Airport",
      "Las Lomitas",
      "AR-P"
    ],
    "latitude": -24.721399,
    "longitude": -60.548801,
    "countryCode": "AR"
  },
  {
    "id": "loc-airport-mdx",
    "locationType": "airport",
    "code": "MDX",
    "nameEn": "Mercedes Airport",
    "municipality": "Mercedes",
    "placeNameEn": "Mercedes",
    "placeKey": "ar-mercedes",
    "coordinatePrecision": "exact",
    "aliases": [
      "MDX",
      "SATM",
      "RCE",
      "Mercedes Airport",
      "Mercedes",
      "AR-W"
    ],
    "latitude": -29.221399,
    "longitude": -58.087799,
    "countryCode": "AR"
  },
  {
    "id": "loc-airport-rcq",
    "locationType": "airport",
    "code": "RCQ",
    "nameEn": "Reconquista Airport",
    "municipality": "Reconquista",
    "placeNameEn": "Reconquista",
    "placeKey": "ar-reconquista",
    "coordinatePrecision": "exact",
    "aliases": [
      "RCQ",
      "SATR",
      "RTA",
      "Reconquista Airport",
      "Reconquista",
      "AR-S"
    ],
    "latitude": -29.210278,
    "longitude": -59.683333,
    "countryCode": "AR"
  },
  {
    "id": "loc-airport-uzu",
    "locationType": "airport",
    "code": "UZU",
    "nameEn": "Curuzu Cuatia Airport",
    "municipality": "Curuzu Cuatia",
    "placeNameEn": "Curuzu Cuatia",
    "placeKey": "ar-curuzu-cuatia",
    "coordinatePrecision": "exact",
    "aliases": [
      "UZU",
      "SATU",
      "CCA",
      "Curuzu Cuatia Airport",
      "Curuzu Cuatia",
      "AR-W"
    ],
    "latitude": -29.7706,
    "longitude": -57.9789,
    "countryCode": "AR"
  },
  {
    "id": "loc-airport-ehl",
    "locationType": "airport",
    "code": "EHL",
    "nameEn": "El Bolsón Airfield",
    "municipality": "El Bolsón",
    "placeNameEn": "El Bolsón",
    "placeKey": "ar-el-bolson",
    "coordinatePrecision": "exact",
    "aliases": [
      "EHL",
      "SAVB",
      "BOL",
      "El Bolsón Airfield",
      "El Bolsón",
      "AR-R"
    ],
    "latitude": -41.943199,
    "longitude": -71.532303,
    "countryCode": "AR"
  },
  {
    "id": "loc-airport-crd",
    "locationType": "airport",
    "code": "CRD",
    "nameEn": "General Enrique Mosconi International Airport",
    "municipality": "Comodoro Rivadavia",
    "placeNameEn": "Comodoro Rivadavia",
    "placeKey": "ar-comodoro-rivadavia",
    "coordinatePrecision": "exact",
    "aliases": [
      "CRD",
      "SAVC",
      "CRV",
      "General Enrique Mosconi International Airport",
      "Comodoro Rivadavia",
      "AR-U"
    ],
    "latitude": -45.786941,
    "longitude": -67.463355,
    "countryCode": "AR"
  },
  {
    "id": "loc-airport-emx",
    "locationType": "airport",
    "code": "EMX",
    "nameEn": "El Maitén Airport",
    "municipality": "El Maitén",
    "placeNameEn": "El Maitén",
    "placeKey": "ar-el-maiten",
    "coordinatePrecision": "exact",
    "aliases": [
      "EMX",
      "SAVD",
      "EMA",
      "El Maitén Airport",
      "El Maitén",
      "AR-U"
    ],
    "latitude": -42.029202,
    "longitude": -71.172501,
    "countryCode": "AR"
  },
  {
    "id": "loc-airport-eqs",
    "locationType": "airport",
    "code": "EQS",
    "nameEn": "Esquel Brigadier Antonio Parodi International Airport",
    "municipality": "Esquel",
    "placeNameEn": "Esquel",
    "placeKey": "ar-esquel",
    "coordinatePrecision": "exact",
    "aliases": [
      "EQS",
      "SAVE",
      "ESQ",
      "Esquel Brigadier Antonio Parodi International Airport",
      "Esquel",
      "AR-U"
    ],
    "latitude": -42.908001,
    "longitude": -71.139503,
    "countryCode": "AR"
  },
  {
    "id": "loc-airport-lhs",
    "locationType": "airport",
    "code": "LHS",
    "nameEn": "Las Heras Airport",
    "municipality": "Las Heras",
    "placeNameEn": "Las Heras",
    "placeKey": "ar-las-heras",
    "coordinatePrecision": "exact",
    "aliases": [
      "LHS",
      "SAVH",
      "CLH",
      "Las Heras Airport",
      "Las Heras",
      "AR-Z"
    ],
    "latitude": -46.538517,
    "longitude": -68.965323,
    "countryCode": "AR"
  },
  {
    "id": "loc-airport-igb",
    "locationType": "airport",
    "code": "IGB",
    "nameEn": "Ingeniero Jacobacci - Captain H R Bordón Airport",
    "municipality": "Ingeniero Jacobacci",
    "placeNameEn": "Ingeniero Jacobacci",
    "placeKey": "ar-ingeniero-jacobacci",
    "coordinatePrecision": "exact",
    "aliases": [
      "IGB",
      "SAVJ",
      "IJC",
      "Ingeniero Jacobacci - Captain H R Bordón Airport",
      "Ingeniero Jacobacci",
      "AR-R"
    ],
    "latitude": -41.3209,
    "longitude": -69.574898,
    "countryCode": "AR"
  },
  {
    "id": "loc-airport-oln",
    "locationType": "airport",
    "code": "OLN",
    "nameEn": "Lago Musters Airport",
    "municipality": "Sarmiento",
    "placeNameEn": "Sarmiento",
    "placeKey": "ar-sarmiento",
    "coordinatePrecision": "exact",
    "aliases": [
      "OLN",
      "SAVM",
      "LGM",
      "Lago Musters Airport",
      "Sarmiento",
      "AR-U"
    ],
    "latitude": -45.5752,
    "longitude": -69.077,
    "countryCode": "AR"
  },
  {
    "id": "loc-airport-oes",
    "locationType": "airport",
    "code": "OES",
    "nameEn": "Antoine de Saint Exupéry Airport",
    "municipality": "San Antonio Oeste",
    "placeNameEn": "San Antonio Oeste",
    "placeKey": "ar-san-antonio-oeste",
    "coordinatePrecision": "exact",
    "aliases": [
      "OES",
      "SAVN",
      "SAN",
      "Antoine de Saint Exupéry Airport",
      "San Antonio Oeste",
      "AR-R"
    ],
    "latitude": -40.7512,
    "longitude": -65.0343,
    "countryCode": "AR"
  },
  {
    "id": "loc-airport-mqd",
    "locationType": "airport",
    "code": "MQD",
    "nameEn": "Maquinchao Airport",
    "municipality": "Maquinchao",
    "placeNameEn": "Maquinchao",
    "placeKey": "ar-maquinchao",
    "coordinatePrecision": "exact",
    "aliases": [
      "MQD",
      "SAVQ",
      "MAQ",
      "Maquinchao Airport",
      "Maquinchao",
      "AR-R"
    ],
    "latitude": -41.2430992126,
    "longitude": -68.7078018188,
    "countryCode": "AR"
  },
  {
    "id": "loc-airport-arr",
    "locationType": "airport",
    "code": "ARR",
    "nameEn": "D. Casimiro Szlapelis Airport",
    "municipality": "Alto Rio Senguerr",
    "placeNameEn": "Alto Rio Senguerr",
    "placeKey": "ar-alto-rio-senguerr",
    "coordinatePrecision": "exact",
    "aliases": [
      "ARR",
      "SAVR",
      "ARS",
      "D. Casimiro Szlapelis Airport",
      "Alto Rio Senguerr",
      "AR-U"
    ],
    "latitude": -45.013599,
    "longitude": -70.812202,
    "countryCode": "AR"
  },
  {
    "id": "loc-airport-sgv",
    "locationType": "airport",
    "code": "SGV",
    "nameEn": "Sierra Grande Airport",
    "municipality": "Sierra Grande",
    "placeNameEn": "Sierra Grande",
    "placeKey": "ar-sierra-grande",
    "coordinatePrecision": "exact",
    "aliases": [
      "SGV",
      "SAVS",
      "SGR",
      "Sierra Grande Airport",
      "Sierra Grande",
      "AR-R"
    ],
    "latitude": -41.591702,
    "longitude": -65.339401,
    "countryCode": "AR"
  },
  {
    "id": "loc-airport-rel",
    "locationType": "airport",
    "code": "REL",
    "nameEn": "Almirante Marco Andres Zar Airport",
    "municipality": "Rawson",
    "placeNameEn": "Rawson",
    "placeKey": "ar-rawson",
    "coordinatePrecision": "exact",
    "aliases": [
      "REL",
      "SAVT",
      "TRE",
      "Almirante Marco Andres Zar Airport",
      "Rawson",
      "AR-U",
      "Trelew Airport"
    ],
    "latitude": -43.2105,
    "longitude": -65.2703,
    "countryCode": "AR"
  },
  {
    "id": "loc-airport-vdm",
    "locationType": "airport",
    "code": "VDM",
    "nameEn": "Gobernador Castello Airport",
    "municipality": "Viedma / Carmen de Patagones",
    "placeNameEn": "Viedma / Carmen de Patagones",
    "placeKey": "ar-viedma-carmen-de-patagones",
    "coordinatePrecision": "exact",
    "aliases": [
      "VDM",
      "SAVV",
      "VIE",
      "Gobernador Castello Airport",
      "Viedma",
      "Carmen de Patagones",
      "AR-R"
    ],
    "latitude": -40.8692,
    "longitude": -63.0004,
    "countryCode": "AR"
  },
  {
    "id": "loc-airport-pmy",
    "locationType": "airport",
    "code": "PMY",
    "nameEn": "El Tehuelche Airport",
    "municipality": "Puerto Madryn",
    "placeNameEn": "Puerto Madryn",
    "placeKey": "ar-puerto-madryn",
    "coordinatePrecision": "exact",
    "aliases": [
      "PMY",
      "SAVY",
      "DRY",
      "El Tehuelche Airport",
      "Puerto Madryn",
      "AR-U"
    ],
    "latitude": -42.7592,
    "longitude": -65.1027,
    "countryCode": "AR"
  },
  {
    "id": "loc-airport-fte",
    "locationType": "airport",
    "code": "FTE",
    "nameEn": "El Calafate - Commander Armando Tola International Airport",
    "municipality": "El Calafate",
    "placeNameEn": "El Calafate",
    "placeKey": "ar-el-calafate",
    "coordinatePrecision": "exact",
    "aliases": [
      "FTE",
      "SAWC",
      "ECA",
      "El Calafate - Commander Armando Tola International Airport",
      "El Calafate",
      "AR-Z"
    ],
    "latitude": -50.281997,
    "longitude": -72.053949,
    "countryCode": "AR"
  },
  {
    "id": "loc-airport-pud",
    "locationType": "airport",
    "code": "PUD",
    "nameEn": "Puerto Deseado Airport",
    "municipality": "Puerto Deseado",
    "placeNameEn": "Puerto Deseado",
    "placeKey": "ar-puerto-deseado",
    "coordinatePrecision": "exact",
    "aliases": [
      "PUD",
      "SAWD",
      "ADO",
      "Puerto Deseado Airport",
      "Puerto Deseado",
      "AR-Z"
    ],
    "latitude": -47.7353,
    "longitude": -65.9041,
    "countryCode": "AR"
  },
  {
    "id": "loc-airport-rga",
    "locationType": "airport",
    "code": "RGA",
    "nameEn": "Gobernador Ramón Trejo Noel International Airport",
    "municipality": "Rio Grande",
    "placeNameEn": "Rio Grande",
    "placeKey": "ar-rio-grande",
    "coordinatePrecision": "exact",
    "aliases": [
      "RGA",
      "SAWE",
      "GRA",
      "Gobernador Ramón Trejo Noel International Airport",
      "Rio Grande",
      "AR-V",
      "Hermes Quijada, Gobernador Ramón Trejo Noel"
    ],
    "latitude": -53.7777,
    "longitude": -67.7494,
    "countryCode": "AR"
  },
  {
    "id": "loc-airport-rgl",
    "locationType": "airport",
    "code": "RGL",
    "nameEn": "Piloto Civil Norberto Fernández International Airport",
    "municipality": "Rio Gallegos",
    "placeNameEn": "Rio Gallegos",
    "placeKey": "ar-rio-gallegos",
    "coordinatePrecision": "exact",
    "aliases": [
      "RGL",
      "SAWG",
      "GAL",
      "Piloto Civil Norberto Fernández International Airport",
      "Rio Gallegos",
      "AR-Z",
      "Brigadier General D. A. Parodi"
    ],
    "latitude": -51.608791,
    "longitude": -69.308948,
    "countryCode": "AR"
  },
  {
    "id": "loc-airport-ush",
    "locationType": "airport",
    "code": "USH",
    "nameEn": "Ushuaia - Malvinas Argentinas International Airport",
    "municipality": "Ushuaia",
    "placeNameEn": "Ushuaia",
    "placeKey": "ar-ushuaia",
    "coordinatePrecision": "exact",
    "aliases": [
      "USH",
      "SAWH",
      "USU",
      "Ushuaia - Malvinas Argentinas International Airport",
      "Ushuaia",
      "AR-V"
    ],
    "latitude": -54.8433,
    "longitude": -68.2958,
    "countryCode": "AR"
  },
  {
    "id": "loc-airport-ula",
    "locationType": "airport",
    "code": "ULA",
    "nameEn": "Capitan D Daniel Vazquez Airport",
    "municipality": "San Julian",
    "placeNameEn": "San Julian",
    "placeKey": "ar-san-julian",
    "coordinatePrecision": "exact",
    "aliases": [
      "ULA",
      "SAWJ",
      "SJU",
      "Capitan D Daniel Vazquez Airport",
      "San Julian",
      "AR-Z"
    ],
    "latitude": -49.306816,
    "longitude": -67.802596,
    "countryCode": "AR"
  },
  {
    "id": "loc-airport-roy",
    "locationType": "airport",
    "code": "ROY",
    "nameEn": "Rio Mayo Airport",
    "municipality": "Rio Mayo",
    "placeNameEn": "Rio Mayo",
    "placeKey": "ar-rio-mayo",
    "coordinatePrecision": "exact",
    "aliases": [
      "ROY",
      "SAWM",
      "RMY",
      "Rio Mayo Airport",
      "Rio Mayo",
      "AR-U"
    ],
    "latitude": -45.703899,
    "longitude": -70.245598,
    "countryCode": "AR"
  },
  {
    "id": "loc-airport-pmq",
    "locationType": "airport",
    "code": "PMQ",
    "nameEn": "Perito Moreno Jalil Hamer Airport",
    "municipality": "Perito Moreno",
    "placeNameEn": "Perito Moreno",
    "placeKey": "ar-perito-moreno",
    "coordinatePrecision": "exact",
    "aliases": [
      "PMQ",
      "SAWP",
      "PTM",
      "Perito Moreno Jalil Hamer Airport",
      "Perito Moreno",
      "AR-Z"
    ],
    "latitude": -46.537899,
    "longitude": -70.978699,
    "countryCode": "AR"
  },
  {
    "id": "loc-airport-ggs",
    "locationType": "airport",
    "code": "GGS",
    "nameEn": "Gobernador Gregores Airport",
    "municipality": "Gobernador Gregores",
    "placeNameEn": "Gobernador Gregores",
    "placeKey": "ar-gobernador-gregores",
    "coordinatePrecision": "exact",
    "aliases": [
      "GGS",
      "SAWR",
      "GRE",
      "Gobernador Gregores Airport",
      "Gobernador Gregores",
      "AR-Z"
    ],
    "latitude": -48.7831,
    "longitude": -70.150002,
    "countryCode": "AR"
  },
  {
    "id": "loc-airport-jsm",
    "locationType": "airport",
    "code": "JSM",
    "nameEn": "Jose De San Martin Airport",
    "municipality": "Chubut",
    "placeNameEn": "Chubut",
    "placeKey": "ar-chubut",
    "coordinatePrecision": "exact",
    "aliases": [
      "JSM",
      "SAWS",
      "Jose De San Martin Airport",
      "Chubut",
      "AR-U"
    ],
    "latitude": -44.048599243199995,
    "longitude": -70.4589004517,
    "countryCode": "AR"
  },
  {
    "id": "loc-airport-ryo",
    "locationType": "airport",
    "code": "RYO",
    "nameEn": "28 de Noviembre Airport",
    "municipality": "Rio Turbio",
    "placeNameEn": "Rio Turbio",
    "placeKey": "ar-rio-turbio",
    "coordinatePrecision": "exact",
    "aliases": [
      "RYO",
      "SAWT",
      "BIO",
      "28 de Noviembre Airport",
      "Rio Turbio",
      "AR-Z",
      "El Turbio"
    ],
    "latitude": -51.605,
    "longitude": -72.2203,
    "countryCode": "AR"
  },
  {
    "id": "loc-airport-rza",
    "locationType": "airport",
    "code": "RZA",
    "nameEn": "Santa Cruz Airport",
    "municipality": "Puerto Santa Cruz",
    "placeNameEn": "Puerto Santa Cruz",
    "placeKey": "ar-puerto-santa-cruz",
    "coordinatePrecision": "exact",
    "aliases": [
      "RZA",
      "SAWU",
      "SCZ",
      "Santa Cruz Airport",
      "Puerto Santa Cruz",
      "AR-Z"
    ],
    "latitude": -50.0165,
    "longitude": -68.5792,
    "countryCode": "AR"
  },
  {
    "id": "loc-airport-bhi",
    "locationType": "airport",
    "code": "BHI",
    "nameEn": "Comandante Espora Airport",
    "municipality": "Bahía Blanca",
    "placeNameEn": "Bahía Blanca",
    "placeKey": "ar-bahia-blanca",
    "coordinatePrecision": "exact",
    "aliases": [
      "BHI",
      "SAZB",
      "BCA",
      "Comandante Espora Airport",
      "Bahía Blanca",
      "AR-B",
      "Bahía Blanca Airport"
    ],
    "latitude": -38.725,
    "longitude": -62.1693,
    "countryCode": "AR"
  },
  {
    "id": "loc-airport-csz",
    "locationType": "airport",
    "code": "CSZ",
    "nameEn": "Brigadier D.H.E. Ruiz Airport",
    "municipality": "Coronel Suarez",
    "placeNameEn": "Coronel Suarez",
    "placeKey": "ar-coronel-suarez",
    "coordinatePrecision": "exact",
    "aliases": [
      "CSZ",
      "SAZC",
      "SUZ",
      "Brigadier D.H.E. Ruiz Airport",
      "Coronel Suarez",
      "AR-B"
    ],
    "latitude": -37.446098,
    "longitude": -61.889301,
    "countryCode": "AR"
  },
  {
    "id": "loc-airport-ovr",
    "locationType": "airport",
    "code": "OVR",
    "nameEn": "Olavarria Airport",
    "municipality": "Olavarria",
    "placeNameEn": "Olavarria",
    "placeKey": "ar-olavarria",
    "coordinatePrecision": "exact",
    "aliases": [
      "OVR",
      "SAZF",
      "OLA",
      "Olavarria Airport",
      "Olavarria",
      "AR-B"
    ],
    "latitude": -36.889999,
    "longitude": -60.216599,
    "countryCode": "AR"
  },
  {
    "id": "loc-airport-gpo",
    "locationType": "airport",
    "code": "GPO",
    "nameEn": "General Pico Airport",
    "municipality": "General Pico",
    "placeNameEn": "General Pico",
    "placeKey": "ar-general-pico",
    "coordinatePrecision": "exact",
    "aliases": [
      "GPO",
      "SAZG",
      "GPI",
      "General Pico Airport",
      "General Pico",
      "AR-L"
    ],
    "latitude": -35.696201,
    "longitude": -63.758301,
    "countryCode": "AR"
  },
  {
    "id": "loc-airport-oyo",
    "locationType": "airport",
    "code": "OYO",
    "nameEn": "Tres Arroyos Airport",
    "municipality": "Tres Arroyos",
    "placeNameEn": "Tres Arroyos",
    "placeKey": "ar-tres-arroyos",
    "coordinatePrecision": "exact",
    "aliases": [
      "OYO",
      "SAZH",
      "YOS",
      "Tres Arroyos Airport",
      "Tres Arroyos",
      "AR-B"
    ],
    "latitude": -38.3869,
    "longitude": -60.3297,
    "countryCode": "AR"
  },
  {
    "id": "loc-airport-sst",
    "locationType": "airport",
    "code": "SST",
    "nameEn": "Santa Teresita Airport",
    "municipality": "Santa Teresita",
    "placeNameEn": "Santa Teresita",
    "placeKey": "ar-santa-teresita",
    "coordinatePrecision": "exact",
    "aliases": [
      "SST",
      "SAZL",
      "STR",
      "Santa Teresita Airport",
      "Santa Teresita",
      "AR-B"
    ],
    "latitude": -36.5423,
    "longitude": -56.7218,
    "countryCode": "AR"
  },
  {
    "id": "loc-airport-mdq",
    "locationType": "airport",
    "code": "MDQ",
    "nameEn": "Ástor Piazzola International Airport",
    "municipality": "Mar del Plata",
    "placeNameEn": "Mar del Plata",
    "placeKey": "ar-mar-del-plata",
    "coordinatePrecision": "exact",
    "aliases": [
      "MDQ",
      "SAZM",
      "MDP",
      "Ástor Piazzola International Airport",
      "Mar del Plata",
      "AR-B",
      "Brigadier General Bartolome De La Colina International Airport"
    ],
    "latitude": -37.9342,
    "longitude": -57.5733,
    "countryCode": "AR"
  },
  {
    "id": "loc-airport-nqn",
    "locationType": "airport",
    "code": "NQN",
    "nameEn": "Presidente Perón International Airport",
    "municipality": "Neuquén",
    "placeNameEn": "Neuquén",
    "placeKey": "ar-neuquen",
    "coordinatePrecision": "exact",
    "aliases": [
      "NQN",
      "SAZN",
      "NEU",
      "Presidente Perón International Airport",
      "Neuquén",
      "AR-Q"
    ],
    "latitude": -38.949001,
    "longitude": -68.155701,
    "countryCode": "AR"
  },
  {
    "id": "loc-airport-nec",
    "locationType": "airport",
    "code": "NEC",
    "nameEn": "Necochea Airport",
    "municipality": "Necochea",
    "placeNameEn": "Necochea",
    "placeKey": "ar-necochea",
    "coordinatePrecision": "exact",
    "aliases": [
      "NEC",
      "SAZO",
      "Necochea Airport",
      "Necochea",
      "AR-B"
    ],
    "latitude": -38.490746,
    "longitude": -58.816337,
    "countryCode": "AR"
  },
  {
    "id": "loc-airport-peh",
    "locationType": "airport",
    "code": "PEH",
    "nameEn": "Comodoro Pedro Zanni Airport",
    "municipality": "Pehuajó",
    "placeNameEn": "Pehuajó",
    "placeKey": "ar-pehuajo",
    "coordinatePrecision": "exact",
    "aliases": [
      "PEH",
      "SAZP",
      "Comodoro Pedro Zanni Airport",
      "Pehuajó",
      "AR-B"
    ],
    "latitude": -35.8446,
    "longitude": -61.8576,
    "countryCode": "AR"
  },
  {
    "id": "loc-airport-rsa",
    "locationType": "airport",
    "code": "RSA",
    "nameEn": "Santa Rosa Airport",
    "municipality": "Santa Rosa",
    "placeNameEn": "Santa Rosa",
    "placeKey": "ar-santa-rosa",
    "coordinatePrecision": "exact",
    "aliases": [
      "RSA",
      "SAZR",
      "OSA",
      "Santa Rosa Airport",
      "Santa Rosa",
      "AR-L"
    ],
    "latitude": -36.588299,
    "longitude": -64.275703,
    "countryCode": "AR"
  },
  {
    "id": "loc-airport-brc",
    "locationType": "airport",
    "code": "BRC",
    "nameEn": "Teniente Luis Candelaria International Airport",
    "municipality": "San Carlos de Bariloche",
    "placeNameEn": "San Carlos de Bariloche",
    "placeKey": "ar-san-carlos-de-bariloche",
    "coordinatePrecision": "exact",
    "aliases": [
      "BRC",
      "SAZS",
      "BAR",
      "Teniente Luis Candelaria International Airport",
      "San Carlos de Bariloche",
      "AR-R",
      "Teniente Luis Candelaria"
    ],
    "latitude": -41.151199,
    "longitude": -71.157501,
    "countryCode": "AR"
  },
  {
    "id": "loc-airport-tdl",
    "locationType": "airport",
    "code": "TDL",
    "nameEn": "Héroes de Malvinas Airport",
    "municipality": "Tandil",
    "placeNameEn": "Tandil",
    "placeKey": "ar-tandil",
    "coordinatePrecision": "exact",
    "aliases": [
      "TDL",
      "SAZT",
      "DIL",
      "Héroes de Malvinas Airport",
      "Tandil",
      "AR-B"
    ],
    "latitude": -37.234634,
    "longitude": -59.228647,
    "countryCode": "AR"
  },
  {
    "id": "loc-airport-vlg",
    "locationType": "airport",
    "code": "VLG",
    "nameEn": "Villa Gesell Airport",
    "municipality": "Villa Gesell",
    "placeNameEn": "Villa Gesell",
    "placeKey": "ar-villa-gesell",
    "coordinatePrecision": "exact",
    "aliases": [
      "VLG",
      "SAZV",
      "GES",
      "Villa Gesell Airport",
      "Villa Gesell",
      "AR-B"
    ],
    "latitude": -37.2354,
    "longitude": -57.0292,
    "countryCode": "AR"
  },
  {
    "id": "loc-airport-cut",
    "locationType": "airport",
    "code": "CUT",
    "nameEn": "Cutral-Co Airport",
    "municipality": "Cutral-Co",
    "placeNameEn": "Cutral-Co",
    "placeKey": "ar-cutral-co",
    "coordinatePrecision": "exact",
    "aliases": [
      "CUT",
      "SAZW",
      "Cutral-Co Airport",
      "Cutral-Co",
      "AR-Q"
    ],
    "latitude": -38.939701,
    "longitude": -69.264603,
    "countryCode": "AR"
  },
  {
    "id": "loc-airport-cpc",
    "locationType": "airport",
    "code": "CPC",
    "nameEn": "Aviador C. Campos Airport",
    "municipality": "Chapelco/San Martin de los Andes",
    "placeNameEn": "Chapelco/San Martin de los Andes",
    "placeKey": "ar-chapelco-san-martin-de-los-andes",
    "coordinatePrecision": "exact",
    "aliases": [
      "CPC",
      "SAZY",
      "CHP",
      "Aviador C. Campos Airport",
      "Chapelco",
      "San Martin de los Andes",
      "AR-Q"
    ],
    "latitude": -40.075401,
    "longitude": -71.137299,
    "countryCode": "AR"
  },
  {
    "id": "loc-airport-ofu",
    "locationType": "airport",
    "code": "OFU",
    "nameEn": "Ofu Airport",
    "municipality": "Ofu",
    "placeNameEn": "Ofu",
    "placeKey": "as-ofu",
    "coordinatePrecision": "exact",
    "aliases": [
      "OFU",
      "NSAS",
      "Z08",
      "Ofu Airport",
      "Ofu",
      "AS-MA"
    ],
    "latitude": -14.1844,
    "longitude": -169.669998,
    "countryCode": "AS"
  },
  {
    "id": "loc-airport-fti",
    "locationType": "airport",
    "code": "FTI",
    "nameEn": "Fitiuta Airport",
    "municipality": "Fitiuta Village",
    "placeNameEn": "Fitiuta Village",
    "placeKey": "as-fitiuta-village",
    "coordinatePrecision": "exact",
    "aliases": [
      "FTI",
      "NSFQ",
      "FAQ",
      "Fitiuta Airport",
      "Fitiuta Village",
      "AS-MA"
    ],
    "latitude": -14.216131,
    "longitude": -169.423771,
    "countryCode": "AS"
  },
  {
    "id": "loc-airport-ppg",
    "locationType": "airport",
    "code": "PPG",
    "nameEn": "Pago Pago International Airport",
    "municipality": "Pago Pago",
    "placeNameEn": "Pago Pago",
    "placeKey": "as-pago-pago",
    "coordinatePrecision": "exact",
    "aliases": [
      "PPG",
      "NSTU",
      "Pago Pago International Airport",
      "Pago Pago",
      "AS-WT"
    ],
    "latitude": -14.331,
    "longitude": -170.710007,
    "countryCode": "AS"
  },
  {
    "id": "loc-airport-hoh",
    "locationType": "airport",
    "code": "HOH",
    "nameEn": "Hohenems-Dornbirn Airfield",
    "municipality": "Hohenems",
    "placeNameEn": "Hohenems",
    "placeKey": "at-hohenems",
    "coordinatePrecision": "exact",
    "aliases": [
      "HOH",
      "LOIH",
      "Hohenems-Dornbirn Airfield",
      "Hohenems",
      "AT-8"
    ],
    "latitude": 47.384477,
    "longitude": 9.699776,
    "countryCode": "AT"
  },
  {
    "id": "loc-airport-grz",
    "locationType": "airport",
    "code": "GRZ",
    "nameEn": "Graz Airport",
    "municipality": "Feldkirchen bei Graz",
    "placeNameEn": "Feldkirchen bei Graz",
    "placeKey": "at-feldkirchen-bei-graz",
    "coordinatePrecision": "exact",
    "aliases": [
      "GRZ",
      "LOWG",
      "Graz Airport",
      "Feldkirchen bei Graz",
      "AT-6",
      "Thalerhof Airport, Fliegerhorst Nittner, Nittner Air Base, Christophorus 12"
    ],
    "latitude": 46.9911,
    "longitude": 15.4396,
    "countryCode": "AT"
  },
  {
    "id": "loc-airport-inn",
    "locationType": "airport",
    "code": "INN",
    "nameEn": "Innsbruck Airport",
    "municipality": "Innsbruck",
    "placeNameEn": "Innsbruck",
    "placeKey": "at-innsbruck",
    "coordinatePrecision": "exact",
    "aliases": [
      "INN",
      "LOWI",
      "Innsbruck Airport",
      "Innsbruck",
      "AT-7",
      "Kranebitten Airport"
    ],
    "latitude": 47.260201,
    "longitude": 11.344,
    "countryCode": "AT"
  },